컨텐츠아이디;캠핑장이름;인허가일자;주소1;주소2;위도;경도;캠핑장종류;도;시군구
10;(주)아웃오브파크;2017-09-18;강원도 춘천시 남면 가옹개길 52-9;;37.7278127;127.5112565;카라반;강원도;춘천시
100000;파크킹;2021-07-31;경북 김천시 어모면 은림로 62-11;;36.1795215;128.1270051;자동차야영장;경상북도;김천시
100001;봉즈살롱;2021-07-30;강원 횡성군 서원면 서원서로102번길 3-18;;37.48049694689978;127.8240705696189;자동차야영장;강원도;횡성군
100002;힐링피아 카라반 글램핑 풀 캠핑장;2021-05-10;경기 가평군 설악면 유명산길 61-75;;37.5978864;127.4947241;일반야영장;경기도;가평군
100003;우니메이카 태안점;2021-07-21;충남 태안군 소원면 산간이길 158-24;;36.7796484;126.1890914;자동차야영장;충청남도;태안군
100004;뇌운계곡글램핑;2021-07-30;강원 평창군 평창읍 뇌운계곡로 659-6;;37.4156933;128.382096;글램핑;강원도;평창군
100005;충주 비내캠프 체험학습장;2021-07-30;충북 충주시 앙성면 학교말2길 50;;37.1629594;127.7519787;자동차야영장;충청북도;충주시
100006;솔비치캠핑장;2021-07-30;충남 태안군 남면 몽산포길 63-23;;36.671601;126.2896689;일반야영장;충청남도;태안군
100007;가온오토캠핑장;2021-07-30;경북 포항시 북구 죽장면 새마을로 3351;;36.1473337;129.0777706;일반야영장;경상북도;포항시
100008;림스 글램핑;2021-07-29;전남 강진군 강진읍 해강로 1038-30;;34.6030215;126.7367324;일반야영장,카라반,글램핑;전라남도;강진군
100009;호미곶유니의바다 카라반캠핑장;2021-07-29;경북 포항시 남구 호미곶면 해맞이로46번길 134;;36.0588372;129.5751877;카라반;경상북도;포항시
100010;예손캠핑장;2021-07-29;경북 고령군 덕곡면 가륜장길 20-7;;35.7931527;128.2141499;일반야영장;경상북도;고령군
100011;(주)웨이브파크;2021-07-28;경기 시흥시 거북섬둘레길 42 (정왕동);;37.3241008;126.6806875;카라반;경기도;시흥시
100012;포에스카라반파크;2021-07-28;경북 포항시 남구 구룡포읍 동해안로 4166-17;;35.9406112;129.530477;일반야영장;경상북도;포항시
100013;약수동산;2021-07-27;경기 양평군 옥천면 약수동산길 86;;37.50762979396307;127.45514704825574;일반야영장;경기도;양평군
100014;학암포글램핑;2021-07-27;충청남도 태안군 원북면 방갈리 515-26 ;;36.89812817760888;126.2102014661134;글램핑;충청남도;태안군
100015;더예감스테이;2021-07-27;경남 산청군 단성면 호암로 702-22;;35.3212687;127.9031091;일반야영장;경상남도;산청군
100016;캠프더포레;2021-07-27;경남 함양군 서상면 부전계곡로 245;;35.6493103;127.671413;일반야영장;경상남도;함양군
100017;태그하우스;2021-07-26;인천 강화군 길상면 동검길154번길 24-19;;37.5916047;126.5069619;카라반;인천시;강화군
100019;양지뜰캠핑장;2021-07-26;전북 무주군 설천면 보안길 88;;35.9076467;127.7680715;자동차야영장;전라북도;무주군
100020;우리들캠핑장;2021-07-25;강원 양양군 현북면 법수치길 1168-2;;37.8967836;128.6148794;일반야영장,글램핑;강원도;양양군
100021;밤벌캠핑장;2021-07-23;경기 가평군 설악면 어비산길 15-23;;37.6012926;127.4947099;일반야영장;경기도;가평군
100022;청춘캠핑장;2021-07-23;경기 가평군 가평읍 호반로 1700;;37.7467558;127.5124645;카라반,글램핑;경기도;가평군
100023;단아한;2021-07-23;전북 순창군 팔덕면 산동신흥길 6;;35.3894687;127.0925441;자동차야영장;전라북도;순창군
100025;고래불해수욕장(병곡지구) 야영장;2022-07-13;경상북도 영덕군 병곡면 병곡리 58-5 ;;36.59681505402054;129.40958851964086;일반야영장;경상북도;영덕군
100026;다시캠핑장;2021-07-22;경북 고령군 덕곡면 덕운로 1043-64;;35.7989783;128.1962787;자동차야영장;경상북도;고령군
100027;산내들캠프;2021-07-20;경북 경주시 산내면 대현길 405;;35.6996961;129.077838;일반야영장;경상북도;경주시
100028;고래불해수욕장(영리지구) 야영장;2023-07-13;경상북도 영덕군 병곡면 영리 119-17 ;;36.5939422;129.4092523;일반야영장;경상북도;영덕군
100029;빗소리야영장;2021-07-20;경북 청도군 각북면 삼평1길 90-11;;35.6679831;128.5940172;일반야영장;경상북도;청도군
100031;화성시 매송 오토캠핑장;2021-07-20;경기도 화성시 매송면 어천리 164 ;;37.25773422847022;126.91615647964286;일반야영장;경기도;화성시
100032;캠핑느루;2021-07-19;강원 고성군 토성면 미시령폭포길 64;;38.2090526;128.4819689;자동차야영장;강원도;고성군
100033;자작도캠핑장;2021-07-19;강원 고성군 죽왕면 삼포해변길 94;;38.3116696;128.5386255;자동차야영장;강원도;고성군
100035;오렌지캠프;2021-07-16;충북 보은군 속리산면 속리산로 995-35;;36.5240131;127.7877966;일반야영장;충청북도;보은군
100036;웰니스 권역 야영장;2021-07-16;충남 공주시 우성면 무성산로 296;;36.5010715;127.0888462;자동차야영장;충청남도;공주시
100037;캠프고일리;2021-07-16;경기 포천시 신북면 포천로2337번길 38-29;;37.9617314;127.1889864;일반야영장;경기도;포천시
100038;하늘아래 야영장;2021-07-15;대구 수성구 진밭길 420 (범물동);;35.7981105;128.6735804;카라반;대구시;수성구
100039;명파리해변야영장;2021-07-15;강원 고성군 현내면 금강산로 819-3;;38.5392344;128.4013433;일반야영장;강원도;고성군
100040;경주 캠핑573;2021-11-11;경북 경주시 현곡면 새안현로 507-19;;35.9157633;129.1494315;자동차야영장,글램핑;경상북도;경주시
100041;염전해변캠핑장;2021-07-15;경상북도 울진군 근남면 수산리 76 ;;37.7296231;127.2915282;일반야영장,자동차야영장,카라반;경상북도;울진군
100042;월성자연캠핑야영장;2021-07-15;경남 거창군 북상면 덕유월성로 1170-19;;35.7689379;127.7198616;일반야영장;경상남도;거창군
100043;백석탄골부리캠핑장;2021-07-15;경북 청송군 안덕면 백석탄로 541-21;;36.3495338;128.9955915;일반야영장;경상북도;청송군
100044;박달재초록꿈캠핑체험장;2021-07-14;충북 제천시 백운면 구학산로 690;;37.1867152;127.9927471;일반야영장;충청북도;제천시
100045;읍내리 75-1 캠핑장;2021-07-13;경기 가평군 가평읍 물안산길 42-143;;37.8552141;127.5140734;일반야영장;경기도;가평군
100046;바다야영장;2021-07-13;전북 부안군 진서면 곰소항길 22-25;;35.5888625;126.6024098;자동차야영장;전라북도;부안군
100047;성요셉치유마을 야영장;2021-07-13;경북 문경시 가은읍 은성로 796-13;;36.634115;128.06245;일반야영장;경상북도;문경시
100048;변산해수욕장 야영장;2021-07-12;전북 부안군 변산면 변산로 2100;;35.6786745;126.5303407;일반야영장;전라북도;부안군
100049;천주봉 캠핑장;2021-07-12;경북 문경시 동로면 금천로 2117;;36.73952;128.3122334;일반야영장;경상북도;문경시
100053;FLOW 11 야영장;2021-07-09;경남 창녕군 길곡면 내외동길 11;;35.3996009;128.5387171;자동차야영장;경상남도;창녕군
100054;우니메이카 산청점;2021-07-09;경남 산청군 시천면 세석길 67;;35.281819;127.7323369;일반야영장;경상남도;산청군
100056;운악산 글램핑;2021-07-07;경기 포천시 화현면 화동로432번길 92-131;;37.9013458;127.3111947;글램핑;경기도;포천시
100057;수원 솔내음 캠핑장;2021-07-06;경기 수원시 권선구 칠보로 2 (금곡동);;37.2673983;126.9386874;카라반,글램핑;경기도;수원시
100058;월악파머스캠핑장;2021-07-04;충북 제천시 덕산면 월악산로 450-5;;36.8926692;128.1386782;자동차야영장;충청북도;제천시
100060;노마드 캠프;2021-07-02;경기 남양주시 경춘로611번길 11-44 (일패동);;37.6180665;127.1760692;일반야영장;경기도;남양주시
100061;서리실 힐링 가족캠핑장;2021-07-02;충남 천안시 동남구 광덕면 서리실길 147;;36.6704133;127.0872809;일반야영장;충청남도;천안시
100062;하늘땅카라반;2021-07-02;전북 무주군 설천면 구천동로 966-12;;35.9072958;127.7705951;카라반;전라북도;무주군
100064;노랑카라반;2021-07-01;경남 남해군 이동면 남해대로 1607;;34.7694045;127.9523716;카라반;경상남도;남해군
100065;세움내움;2021-08-02;경기도 양평군 양평면 양동로 1112;;37.4733389;127.7326415;일반야영장,자동차야영장;경기도;양평군
100066;포천 글램파크 캠핑장;2018-11-22;경기 포천시 이동면 화동로 1925-47;;38.020013227585686;127.36911105356124;일반야영장;경기도;포천시
100067;화천드림캠핑장;2021-08-06;강원 화천군 화천읍 한묵령로 504;;38.202277;127.7662366;일반야영장;강원도;화천군
100068;담터오지글램핑;2021-08-23;강원 철원군 동송읍 담터길 350;;38.14723980921425;127.21129971468024;일반야영장,글램핑;강원도;철원군
100069;메이플글램핑&카라반;2021-08-13;경기 포천시 이동면 화동로 2236-25;;38.04441628383899;127.3750053687656;카라반,글램핑;경기도;포천시
100070;신두57캠핑&글램핑;2021-08-19;충남 태안군 원북면 신두해변길 201-31;;36.8416645;126.1920462;일반야영장,글램핑;충청남도;태안군
100071;민트글램핑;2021-08-13;경기 포천시 이동면 금강로 5846;;38.0531117;127.3749216;일반야영장,글램핑;경기도;포천시
100072;에프앤에프캠핑;2021-08-17;충북 제천시 봉양읍 명암로 635;;37.1947287;128.1474917;자동차야영장;충청북도;제천시
100073;카이로스오토야영장;2021-08-27;충북 충주시 동량면 미라실로 603;;37.0091397;128.0405932;일반야영장;충청북도;충주시
100074;한마음캠핑플레이스;2021-05-25;충남 금산군 진산면 대둔산로 206;;36.1260059;127.349072;카라반,글램핑;충청남도;금산군
100075;남해금산오토캠핑장;2021-08-10;경남 남해군 상주면 남해대로796번길 54;;34.7350843;127.9839126;일반야영장;경상남도;남해군
100076;알로프랑스;2021-08-02;경북 김천시 어모면 은림로 62-11;;36.1795215;128.1270051;자동차야영장;경상북도;김천시
100077;야한 캠핑장;2021-08-02;경기 이천시 마장면 이섭대천로155번길 100;;37.2199766;127.3913725;일반야영장;경기도;이천시
100078;소노팜;2021-08-02;강원 홍천군 서면 개야로 357-32;;37.6921803;127.6403781;자동차야영장;강원도;홍천군
100080;홍천 반딧불캠핑장;2021-08-03;강원 홍천군 화촌면 도심리길 181;;37.7864808;127.8960472;자동차야영장;강원도;홍천군
100081;영흥도어울림캠핑장;2021-08-03;인천 옹진군 영흥면 영흥서로 452-67;;37.2827113;126.455218;자동차야영장;인천시;옹진군
100082;당사현대차오션캠프;2021-08-05;울산 북구  당사동 378-4;;35.5845026;129.456724;자동차야영장;울산시;북구
100083;파인벨리펜션 글램핑 2호점;2021-08-09;경기 포천시 화현면 봉화로 382-1;;37.8831404;127.2783471;카라반,글램핑;경기도;포천시
100084;숲이야기;2021-08-09;강원 춘천시 남산면 서백길 691-77;;37.7998205;127.588692;일반야영장;강원도;춘천시
100085;큰빛내 야영장;2021-08-11;경상북도 울진군 금강송면 소광리 127-3 ;;37.0260152927312;129.21124849222645;일반야영장;경상북도;울진군
100086;노마드글램핑;2021-08-11;경기 가평군 상면 원흥길 46-12;;37.8186686;127.326188;글램핑;경기도;가평군
100087;하얀보트;2021-08-12;제주특별자치도 서귀포시 막숙포로 66-1 (법환동);;33.235633;126.5145116;자동차야영장;제주도;서귀포시
100088;은하수 관광농원;2021-08-12;경북 김천시 부항면 안간1길 760;;36.0030208;127.9548573;일반야영장;경상북도;김천시
100089;백암온천마을 영농조합법인 야영장;2021-08-12;경북 울진군 온정면 온정리 665-2 ;;36.7078708;129.3411442;카라반;경상북도;울진군
100090;가리벨리캠핑장;2021-08-13;강원 인제군 인제읍 대목리길 137;;38.0731303;128.3383524;자동차야영장;강원도;인제군
100091;에이미캠핑장;2021-08-17;강원 영월군 김삿갓면 영월동로 1107-1;;37.1320289;128.5353337;일반야영장,자동차야영장;강원도;영월군
100093;비토애글램핑2호점(BITOLUV GLAMPING Season2);2021-08-20;경남 사천시 서포면 토끼로 217;;34.9812708;127.9647885;글램핑;경상남도;사천시
100094;캠핑679;2021-08-20;경기 가평군 북면 화악산로 162-21;;37.8966864;127.5609183;일반야영장;경기도;가평군
100095;더모스트 글램핑;2021-08-23;경북 문경시 문경읍 문경대로 2259-9;;36.7312958;128.0960354;글램핑;경상북도;문경시
100096;젠틀펫 파라다이스;2021-08-23;경북 문경시 문경읍 문경대로 2430;;36.7423188;128.0820639;글램핑;경상북도;문경시
100097;아이프로방스;2021-08-24;충북 청주시 상당구 미원면 남부로 6774;;36.6133644;127.679195;자동차야영장;충청북도;청주시
100098;사천 케이블카 자연휴양림;2021-08-24;경남 사천시 실안길 242-45 (실안동);;34.950239;128.057644;일반야영장;경상남도;사천시
100099;진악산오토캠핑장;2021-08-25;충남 금산군 남이면 진악로 138-2;;36.057124;127.4351636;일반야영장;충청남도;금산군
100100;라라캠핑장;2021-08-25;경북 경주시 양남면 서왕길 381-14;;35.6877237;129.396336;자동차야영장;경상북도;경주시
100101;속리산풍경캠핑장;2021-08-25;충북 보은군 속리산면 중판1길 24;;36.5132559;127.7997335;일반야영장;충청북도;보은군
100102;오색 산새소리캠핑장;2021-08-26;강원 양양군 서면 설악로 1044;;38.0774961;128.4661922;일반야영장;강원도;양양군
100103;파주캠핑장;2021-08-30;경기 파주시 탄현면 방촌로628번길 25-45;;37.79774498308247;126.72195005905982;일반야영장;경기도;파주시
100104;느티담길 캠핑장;2021-08-30;대구 군위군 산성면 부흥로 362-33;;36.11735;128.6904033;자동차야영장;경상북도;군위군
100105;이천 인휴 글램핑;2021-08-30;경기 이천시 모가면 진상미로1385번길 221-6;;37.1723396;127.4706034;일반야영장,글램핑;경기도;이천시
100106;속리산 시어동 캠핑장;2021-08-31;경북 상주시 화북면 장암리 982-2;;36.5703996;127.8971079;자동차야영장;경상북도;상주시
100107;바다다 캠핑장;2021-08-31;인천 강화군 화도면 해안남로 2739-36;;37.63651621991254;126.38161498354388;자동차야영장;인천시;강화군
100108;대룡산 오토캠핑장;2021-09-01;강원 홍천군 북방면 성동로 1612;;37.8267701375988;127.83666968722493;자동차야영장;강원도;홍천군
100109;무수아취;2021-09-14;서울 도봉구 도봉로169길 249 (도봉동);;37.6764256;127.0330822;일반야영장,글램핑;서울시;도봉구
100110;오늘 여기 카라반;2021-09-10;경북 포항시 남구 호미곶면 일출로 492;;36.0328977;129.5764878;일반야영장;경상북도;포항시
100111;캠프 올모;2021-09-10;경기 가평군 설악면 장수로 156-50;;37.61790481221619;127.50922063498082;일반야영장;경기도;가평군
100112;스타밸리캠핑장;2021-09-15;충북 진천군 백곡면 배티로 425;;36.9107444;127.3402684;일반야영장;충청북도;진천군
100113;힐사이드인가평 글램핑&캠핑;2021-09-17;경기 가평군 북면 화악지암길 360;;37.95405796984223;127.58129109940916;일반야영장;경기도;가평군
100114;천지 글램핑;2021-09-15;전남 순천시 상사면 선동길 112;;34.9022155;127.4360997;글램핑;전라남도;순천시
100115;비건캠핑;2017-12-05;강원 영월군 산솔면 송운길 69;;37.13196048630606;128.72473231183943;일반야영장;강원도;영월군
100117;별밤캠핑장;2021-09-30;전남 나주시 다시면 고막원길 20;;35.0275028;126.6092813;일반야영장,글램핑;전라남도;나주시
100118;동산오토캠핑장;2021-09-30;대구 군위군 부계면 원효길 40;;36.0485005;128.6580419;일반야영장;경상북도;군위군
100119;글램핑포엠;2021-09-30;경북 청도군 매전면 능소화길 6;;35.6380123;128.8526897;일반야영장;경상북도;청도군
100120;캠프파크 자동차 야영장;2021-10-01;경남 창녕군 유어면 우포1대로 285-1;;35.5179743;128.3816442;자동차야영장;경상남도;창녕군
100121;다울관광농원 야영장;2021-09-28;충청남도 서산시 성연면 오사리 658-2;;36.8351984533706;126.41814699990738;일반야영장;충청남도;서산시
100122;라피;2021-09-17;강원 평창군 봉평면 흥정계곡4길 71-70;;37.6473441;128.3137995;자동차야영장,글램핑;강원도;평창군
100123;아리아리 숲속의 야영장;2021-09-16;강원 영월군 주천면 솔치로 240-70;;37.2636765;128.2126356;자동차야영장;강원도;영월군
100124;느루 캠핑장;2021-09-15;충남 부여군 장암면 장암로 67-28;;36.2376362;126.8876918;일반야영장;충청남도;부여군
100125;우니메이카 단양점;2021-09-14;충북 단양군 가곡면 새밭로 820;;36.9885564;128.4573274;일반야영장;충청북도;단양군
100126;수리바위 캠핑정원;2021-09-14;충남 부여군 외산면 만수리 산25-3;;36.3031571;126.701856;자동차야영장;충청남도;부여군
100127;더오창호;2021-09-14;충북 청주시 청원구 오창읍 화복로 780-106;;36.75164;127.4151417;글램핑;충청북도;청주시
100128;숲속의아침;2021-09-03;강원 영월군 무릉도원면 무릉법흥로 1115;;37.3561756;128.2777782;일반야영장;강원도;영월군
100129;둥지캠핑장;2021-09-23;충북 보은군 내북면 회인내북로 874;;36.5663155;127.6489785;자동차야영장;충청북도;보은군
100130;개랭이 오토 캠핑장;2021-09-11;전남 순천시 별량면 흑가길 6-1;;34.8864165;127.3845028;일반야영장,글램핑;전라남도;순천시
100131;또바기 스파글램핑;2021-09-10;경기 가평군 북면 멱골로 205-10;;37.9085334;127.5731245;글램핑;경기도;가평군
100132;에코팜 부설 오토캠핑장;2021-09-10;경북 포항시 북구 죽장면 합석길 7;;36.2026459;129.095369;일반야영장,글램핑;경상북도;포항시
100133;한별 도그파크;2021-09-10;경남 함안군 법수면 이묵골로 135;;35.3365951;128.3562584;일반야영장;경상남도;함안군
100134;양양 솔바다 캠핑장;2021-09-09;강원도 양양군 손양면 송전리 220-1 ;;38.0926872;128.6519241;일반야영장;강원도;양양군
100135;곰섬캠핑장 2구역;2021-09-09;충남 태안군 남면 곰섬로 500-12;;36.5878439;126.292115;일반야영장;충청남도;태안군
100136;노문 야영장;2021-09-06;경기 양평군 서종면 갈문길 22-17;;37.6462611;127.4336945;일반야영장;경기도;양평군
100137;부엉캠핑클럽;2021-09-06;전북 완주군 운주면 산북신복길 125-72;;36.0865178;127.3539395;일반야영장;전라북도;완주군
100138;구화산바베큐;2021-09-06;경북 김천시 구화산길 64-7 (교동);;36.146918;128.1027106;글램핑;경상북도;김천시
100139;지리산365오토캠핑펜션;2021-09-06;경남 산청군 시천면 지리산대로 605;;35.288732;127.7590729;일반야영장;경상남도;산청군
100140;땡땡이글램핑;2021-09-03;전남 장흥군 대덕읍 신흥1길 5-55;;34.5051709;126.9101566;글램핑;전라남도;장흥군
100141;달빛정원글램핑&카라반;2016-09-23;경기 가평군 설악면 유명산길 118;;37.59307690727609;127.4871936860097;일반야영장;경기도;가평군
100142;산내956;2021-10-06;경북 경주시 산내면 문복로 956;;35.7136156;129.0551044;글램핑;경상북도;경주시
100143;포천 라온글램핑&오토캠핑장;2021-10-06;경기 포천시 영중면 성장로55번길 15;;38.0282881;127.2655595;일반야영장,글램핑;경기도;포천시
100144;인천청라국제도시 해변공원캠핑장;2021-10-19;인천 서구 첨단서로 190 (청라동);;37.53808;126.61677;일반야영장;인천시;서구
100145;무수캠핑장;2021-10-22;경기 평택시 포승읍 홍원길 14;;37.0180415;126.868282;일반야영장;경기도;평택시
100146;세븐캠핑장;2021-07-22;강원도 양양군 서면 서림리 353-9;;37.963669171307856;128.5164003282732;자동차야영장;강원도;양양군
100147;아우내관광농원캠핑장;2021-10-29;충남 천안시 동남구 병천면 관성3길 267-40;;36.8215512;127.3412673;자동차야영장;충청남도;천안시
100148;레끄레오캠핑장;2021-10-19;경북 청도군 금천면 선암로 387-116;;35.6748689;128.8875854;일반야영장;경상북도;청도군
100149;아메리카 RV CAMP PARK;2021-10-01;경남 창녕군 유어면 우포1대로 285-1;;35.5179743;128.3816442;자동차야영장;경상남도;창녕군
100150;엠와이힐링캠핑장;2021-10-01;경남 밀양시 활성로 296 (활성동);;35.4892834;128.8039245;일반야영장;경상남도;밀양시
100151;운악184;2021-10-05;경기 포천시 화현면 화동로184번길 35-1;;37.8838672;127.3071702;일반야영장,글램핑;경기도;포천시
100152;나무야나무야캠핑장;2021-10-06;충북 괴산군 연풍면 유상길 85;;36.7798828;127.975885;일반야영장;충청북도;괴산군
100153;우니메이카 철원점;2021-10-15;강원 철원군 근남면 하오재로 1656-4;;38.2021448;127.4723327;일반야영장;강원도;철원군
100154;꾸네오 캠핑장;2021-10-07;전북 순창군 금과면 매우1길 27-1;;35.3416767;127.0867014;자동차야영장;전라북도;순창군
100155;그리심 글램핑장;2021-10-07;충남 공주시 정안면 어물길 395;;36.5891498;127.1477909;자동차야영장,카라반;충청남도;공주시
100156;리틀보이 캠핑장;2021-10-07;경남 고성군 회화면 옥수길 13;;35.0982368;128.3759571;자동차야영장;경상남도;고성군
100157;가평 글램핑 사그막 끝마을;2021-10-14;경기 가평군 가평읍 석봉로3번길 167-54;;37.823627;127.490698;일반야영장,카라반,글램핑;경기도;가평군
100158;아틴마루 야영장;2021-10-15;경기 양평군 서종면 가마봉1길 18-27;;37.6196124;127.4345481;일반야영장;경기도;양평군
100159;보물나라캠프;2021-10-15;경기 연천군 신서면 동내로 1359;;38.1544029;127.1429015;일반야영장;경기도;연천군
100160;별내린캠핑;2021-10-15;경기 남양주시 수동면 축령산로 121-1;;37.7389116;127.3050404;자동차야영장;경기도;남양주시
100161;스톤 캠핑장;2021-10-15;인천 강화군 하점면 고려산로377번길 33;;37.754659;126.4090458;일반야영장;인천시;강화군
100162;드론스포츠코리아;2021-10-19;전남 고흥군 금산면 돈청길 25-17;;34.4662464;127.1300413;일반야영장;전라남도;고흥군
100163;평화숲;2021-10-20;충남 청양군 대치면 비끼내길 171-6;;36.4787323;126.8669527;글램핑;충청남도;청양군
100164;파주 눌노리 체험 캠핑장;2021-10-20;경기 파주시 파평면 청송로432번길 99;;37.9282308;126.8653481;일반야영장;경기도;파주시
100165;산앤호반 캠핑장;2021-10-22;경남 합천군 봉산면 서부로 4107-4;;35.6138643;128.0268115;자동차야영장;경상남도;합천군
100166;몽리치;2021-10-25;경기 가평군 가평읍 당목가일길 574;;37.8746584;127.5718981;일반야영장,글램핑;경기도;가평군
100167;스테이 272;2021-10-25;경기 이천시 마장면 이장로60번길 34-42;;37.260028;127.3855754;일반야영장;경기도;이천시
100168;솔부엉이 캠핑장;2021-10-27;충북 음성군 음성읍 음성로826번길 6-9;;36.9727539;127.6250899;자동차야영장;충청북도;음성군
100169;영흥소장골야영장;2021-10-28;인천 옹진군 영흥면 영흥남로191번길 58-76;;37.2376842;126.4622162;일반야영장;인천시;옹진군
100170;사발소캠핑장;2021-10-29;강원 횡성군 갑천면 어답산로 60-15;;37.5692609;128.0415219;일반야영장;강원도;횡성군
100171;영흥도십리포캠핑장;2021-10-29;인천 옹진군 영흥면 영흥북로 360;;37.2796838;126.4867324;일반야영장,자동차야영장;인천시;옹진군
100172;하비비캠핑장;2021-10-29;충북 충주시 금가면 오미기2길 120-2;;36.9979252;127.8853871;일반야영장;충청북도;충주시
100173;스테리움 제천;2015-06-26;충북 제천시 백운면 구학산로 1038;;37.2046656;128.0094154;일반야영장,자동차야영장,카라반,글램핑;충청북도;제천시
100174;봄봄캠핑;2021-11-08;강원 춘천시 사북면 화악지암길 576;;37.97985036620364;127.62052191040594;일반야영장;강원도;춘천시
100175;산속에 관광농원;2021-11-05;경기 동두천시 안흥로26번길 283 (안흥동);;37.9381304;127.0380781;일반야영장;경기도;동두천시
100176;화양숲노리캠핑장;2021-05-26;충북 괴산군 청천면 화양로 834-9;;36.6808591;127.8132441;자동차야영장;충청북도;괴산군
100177;양양고인돌캠프;2021-10-26;강원 양양군 서면 고인돌길 200-49;;38.0539376;128.5741978;일반야영장;강원도;양양군
100178;정선 도원펜션&캠핑장;2021-11-12;강원 정선군 북평면 어도원길 165;;37.4392957;128.6255169;일반야영장;강원도;정선군
100179;영월가자 펜션&캠핑장;2021-07-22;강원 영월군 무릉도원면 무릉법흥로 852-24;영월가자 펜션&캠핑장;37.3335821;128.2828521;일반야영장,자동차야영장,카라반;강원도;영월군
100181;캠프여주;2021-12-01;경기 여주시 북내면 중암2길 19-22;;37.3571279;127.7102973;일반야영장;경기도;여주시
100182;솔가람 캠핑장;2021-12-01;경상북도 성주군 수륜면 수성리 954-1;;35.86562400769073;128.19035423546308;일반야영장;경상북도;성주군
100183;라이프위드도그;2021-12-03;강원 인제군 인제읍 자작나무숲길 1112;;38.00156;128.2316879;일반야영장;강원도;인제군
100184;메기의 추억;2021-11-09;경기 가평군 조종면 연인산로 296;;37.8378812;127.3660601;일반야영장,카라반,글램핑;경기도;가평군
100185;아름다운 농원;2021-11-09;경기 포천시 영북면 북원로 281;;38.1223184;127.2682375;일반야영장;경기도;포천시
100186;(가)꽃향기;2021-11-09;충남 부여군 은산면 충절로2883번길 13;;36.3131271;126.8457645;일반야영장;충청남도;부여군
100187;자연과힐링;2021-11-09;강원 횡성군 청일면 봉덕로299번길 65;;37.5756095;128.183499;카라반;강원도;횡성군
100188;황우거주식회사;2021-11-12;강원 횡성군 공근면 창봉1길 117;;37.5639929;127.9447428;일반야영장;강원도;횡성군
100189;카캠 그라운드;2021-11-12;경기 가평군 조종면 세곡로 155;;37.8341998;127.3315589;일반야영장;경기도;가평군
100190;솔잎향캠핑파크;2021-11-12;경기 시흥시 수인로2107번길 52 (조남동);;37.3698228;126.8711247;일반야영장;경기도;시흥시
100191;화순돔아일랜드;2021-11-18;전남 화순군 화순읍 학포로 2653-20;;35.0462361;126.9612612;글램핑;전라남도;화순군
100192;라라캠핑장;2021-11-22;경남 양산시 원동면 원동로 1899-30;;35.3959128;128.9242567;일반야영장;경상남도;양산시
100193;선장포협동조합;2021-11-22;충남 아산시 선장면 선장로 121-10;;36.7903534;126.8595945;자동차야영장;충청남도;아산시
100194;더존 관광농원;2021-11-24;경기 포천시 이동면 화동로2076번길 125;;38.0327484;127.3803955;카라반,글램핑;경기도;포천시
100195;물바람캠핑장;2021-11-26;전북 완주군 동상면 송광수만로 1079-61;;35.9291573;127.2641587;일반야영장;전라북도;완주군
100196;을왕리 솔트 캠핑장;2021-11-26;인천 중구 용유서로423번길 38 (을왕동);;37.457653;126.3689413;자동차야영장;인천시;중구
100197;(주)백동소풍가는길;2021-11-30;경남 양산시 백동길 128 (소주동);;35.4037221;129.144361;일반야영장;경상남도;양산시
100198;오아시스정글;2021-11-30;강원 인제군 인제읍 필례약수길 84-10;;38.0762331;128.3690179;일반야영장,자동차야영장;강원도;인제군
100199;사노리숲캠핑장;2017-05-26;경기 구리시 동구릉로459번길 181 (사노동);;37.6363036;127.1309851;일반야영장;경기도;구리시
100200;별밤 글램핑;2017-06-16;경기도 가평군 상면 원흥리 514-13;;37.82130459998124;127.32096795765152;일반야영장;경기도;가평군
100201;글램인스타;2021-12-07;강원도 정선군 고한읍 고토일길 210-15;;37.2186396;128.8585657;글램핑;강원도;정선군
100202;가평조이글램핑;2016-05-04;경기 가평군 북면 멱골로272번길 9;;37.9132053;127.5766743;일반야영장,글램핑;경기도;가평군
100203;둥그레휴양마을;2021-12-17;충북 보은군 보은읍 강신1길 3;;36.5003063;127.748085;자동차야영장,카라반,글램핑;충청북도;보은군
100204;캠프 고토일;2015-03-17;강원 평창군 봉평면 흥정계곡3길 60;;37.64823695368516;128.32869532961703;일반야영장;강원도;평창군
100205;마을야영장, 침산추월;2021-11-26;세종특별자치시 조치원읍 침산6길 13;;36.6004221;127.29379;자동차야영장;세종시;세종시
100206;경상북도교육청김천오토캠핑장	;2021-12-17;경북 김천시 증산면 증산1로 163;;35.9097778;128.0254889;자동차야영장;경상북도;김천시
100207;호두마루글램핑;2021-12-23;경남 사천시 서포면 선창부두길 11-2;;34.991055;127.9742009;자동차야영장,글램핑;경상남도;사천시
100208;차밍캠핑;2021-11-18;강원 원주시 지정면 지정로 1393;;37.3898166;127.783693;일반야영장,카라반;강원도;원주시
100209;관광농원금산만악리수목원오토캠핑장;2021-12-21;충남 금산군 진산면 초미동길 138-10;;36.1547058;127.4371752;일반야영장,카라반;충청남도;금산군
100210;그린앤블루;2021-04-07;경남 밀양시 단장면 고례로 805-25;;35.4894615;128.9234833;자동차야영장;경상남도;밀양시
100211;카라반파크 아마존;2021-12-29;전북 완주군 구이면 항가리 1203;;35.7194782;127.1088124;카라반;전라북도;완주군
100212;밀양 도깨비방망이 캠핑장;2021-12-22;경남 밀양시 단장면 단장로 1055;;35.4859449;128.8497855;일반야영장;경상남도;밀양시
100213;명덕농원;2015-11-24;경기 포천시 화현면 봉화로 400-134;;37.8862519;127.2852868;일반야영장,글램핑;경기도;포천시
100214;종이섬 야영장;2021-12-03;경남 통영시 용남면 지도해안로 303;;34.9143563;128.4724198;자동차야영장;경상남도;통영시
100215;교육가족체험장;2021-12-31;충남 부여군 세도면 인세로 40-3;;36.1670413;126.9726951;일반야영장,카라반;충청남도;부여군
100216;장흥군 수문랜드 블루투어;2021-12-31;전남 장흥군 안양면 수문용곡로 159-36;;34.633212;127.0303201;일반야영장;전라남도;장흥군
100217;김천실내테니스장 & 김천오토캠핑장;2021-12-31;경북 김천시 남면 초곡길 287-97;;36.1407786;128.1779613;자동차야영장;경상북도;김천시
100218;김천맑은계곡 오토캠핑장;2021-12-31;경북 김천시 부항면 대야길 307;;36.0192538;127.9184282;일반야영장;경상북도;김천시
100219;우니메이카 당진점;2021-12-30;충남 당진시 고대면 온동로 1-21;;36.9595439;126.5506463;일반야영장;충청남도;당진시
100220;호미곶 고래마을 캠핑장;2021-12-29;경북 포항시 남구 호미곶면 고래마을길 8;;36.0322311;129.5775102;카라반;경상북도;포항시
100221;그자리 야영장;2021-12-29;강원 홍천군 서면 노일로 478;;37.6952997;127.7238698;자동차야영장;강원도;홍천군
100222;우니메이카 안동점;2021-12-29;경북 안동시 남후면 무릉1길 20-46;;36.5205595;128.6756395;일반야영장,카라반;경상북도;안동시
100223;팔공 쉼터 야영장;2021-12-28;대구 군위군 부계면 원효길 57-1;;36.0472331;128.6594282;자동차야영장;경상북도;군위군
100224;우니메이카 밀양점;2021-12-28;경남 밀양시 단장면 국전로 78-5;;35.5087379;128.8753088;일반야영장;경상남도;밀양시
100225;하늘빛;2021-12-27;인천 옹진군 영흥면 영흥서로 527-26;;37.2744568;126.4536388;자동차야영장;인천시;옹진군
100227;르쏠레이475카페 야영장;2021-12-27;강원 양구군 양구읍 박수근로365번길 84-11;;38.1054957;127.9727437;일반야영장,글램핑;강원도;양구군
100228;경상북도교육청 포항산누리오토캠핑장;2021-12-27;경북 포항시 북구 죽장면 죽장로 2805;;36.3030333;129.2486;자동차야영장;경상북도;포항시
100230;스칼라캠프장;2021-12-24;강원 춘천시 남산면 추곡고개길 326-121;;37.7651221;127.6476322;자동차야영장;강원도;춘천시
100231;가평 리오카라반;2021-12-23;경기 가평군 상면 축령로70번길 44-61;;37.7794989;127.3629559;카라반;경기도;가평군
100232;라온힐야영장;2021-12-23;경기 가평군 상면 수목원로 224;;37.7585268;127.3610824;일반야영장;경기도;가평군
100233;해밀터;2021-12-23;충북 괴산군 청천면 이평4길 23-14;;36.6634019;127.8688233;자동차야영장;충청북도;괴산군
100234;산마루카라반;2022-06-24;경기 포천시 이동면 화동로1724번길 124-14;;37.9952108;127.3747122;일반야영장,카라반;경기도;포천시
100235;위더스글램핑;2021-12-21;경남 창녕군 남지읍 박진로 627;;35.4259846;128.4043502;글램핑;경상남도;창녕군
100236;윤 오토캠핑장;2021-12-18;경기 양평군 청운면 비룡1길 49-19;;37.545149;127.6988015;일반야영장;경기도;양평군
100237;강변글램핑;2021-12-16;경기 김포시 금포로 1202 (운양동);;37.6516116;126.7008778;글램핑;경기도;김포시
100238;카사비앙카;2021-12-16;강원 삼척시 근덕면 부남해변길 15;;37.3586101;129.2503816;글램핑;강원도;삼척시
100239;단아하우스;2021-12-16;강원 양양군 강현면 진미로54번길 12-1;;38.1495719;128.6029164;일반야영장;강원도;양양군
100240;이숲e랜드 야영장;2021-12-16;전남 장성군 북하면 병풍로 782-11;;35.3253017;126.8693491;글램핑;전라남도;장성군
100241;담터라온글램핑;2021-12-09;강원 철원군 동송읍 담터길 352;;38.1619799;127.1896317;일반야영장,글램핑;강원도;철원군
100242;라라플레이스;2021-12-07;강원도 양양군 현북면 하광정리 608-6 ;;38.02376484621957;128.72009165750654;글램핑;강원도;양양군
100243;캐닌힐스(CANINHILLS);2021-12-06;강원 홍천군 서면 가일길39번길 35;;37.6636713;127.6056251;일반야영장,카라반;강원도;홍천군
100244;폴라데이 캠핑장;2021-12-05;경기 포천시 군내면 선정비로 58;;37.887054;127.2155059;일반야영장;경기도;포천시
100245;남해 힐링국민여가캠핑장;2021-12-02;경남 남해군 이동면 성남로 105;;34.7786958;127.9499272;자동차야영장;경상남도;남해군
100246;펫앤트리;2022-01-25;충남 서산시 팔봉면 호리중말길 13;;36.8411777;126.3284546;글램핑;충청남도;서산시
100247;남한산성 캠핑장;2022-01-03;경기 광주시 남한산성면 남한산성로 144;;37.4550879;127.2350577;일반야영장;경기도;광주시
100248;선재해림 카라반;2022-08-05;인천 옹진군 영흥면 선재로226번길 107-34;;37.2529825;126.5271596;카라반;인천시;옹진군
100249;철원포레스트;2022-02-03;강원 철원군 갈말읍 순담길 69;;38.1710191;127.3012336;일반야영장,글램핑;강원도;철원군
100250;매향 오토 캠핑장;2022-01-28;경기 화성시 우정읍 궁평항로 81-22;;37.0527371;126.7592065;자동차야영장;경기도;화성시
100251;거금도 청석 오토캠핑장;2022-01-27;전남 고흥군 금산면 거금일주로 1883;;34.4536023;127.2181649;일반야영장;전라남도;고흥군
100252;영덕 디아로 글램핑장;2022-01-26;경북 영덕군 영덕읍 영덕대게로 625-168;;36.4034212;129.4149456;글램핑;경상북도;영덕군
100253;쿠 야영장;2022-01-26;경남 창원시 마산합포구 구산면 해양관광로 1767;;35.0746231;128.565544;카라반,글램핑;경상남도;창원시
100254;공둘 캠핑장(02);2022-01-25;충남 서천군 서면 주원로 59;;36.1592093;126.5754967;자동차야영장;충청남도;서천군
100255;월명612;2022-01-25;경북 김천시 남면 운봉1길 11-39;;36.055566;128.2535291;일반야영장,카라반;경상북도;김천시
100256;우리오토캠핑장;2022-01-25;경기 연천군 연천읍 동내로 304;;38.089173;127.1116051;자동차야영장;경기도;연천군
100257;심천치유자연휴양림야영장;2022-01-24;충남 금산군 남일면 신동길 239-123;;35.9908677;127.4857778;일반야영장,카라반,글램핑;충청남도;금산군
100258;배방관광농원;2022-01-21;충남 아산시 배방읍 솔치로 17-31;;36.7460591;127.0520643;자동차야영장;충청남도;아산시
100259;용소유원지 야영장;2022-01-21;경남 사천시 사남면 사남로 286-18;;35.0143576;128.133457;일반야영장;경상남도;사천시
100260;일상화 글램핑;2022-01-19;충북 보은군 산외면 성암가고로 235-6;;36.5851392;127.6977627;글램핑;충청북도;보은군
100261;트멍 캠핑장;2022-01-19;경기 포천시 소흘읍 광릉수목원로 932-2;;37.7794961;127.1415921;일반야영장;경기도;포천시
100262;호랑이캠핑;2022-01-19;경기 포천시 영북면 새낭로 919;;38.055694;127.3251217;일반야영장;경기도;포천시
100263;금옥골 숲속작은마을;2022-01-14;강원 춘천시 동면 금옥1길 28-22;;37.9153876;127.8031661;일반야영장,카라반,글램핑;강원도;춘천시
100264;대장이랜드 농촌체험휴양마을;2022-01-14;충남 공주시 계룡면 갑사로 307;;36.3687213;127.1652627;일반야영장;충청남도;공주시
100265;캠프627;2022-01-14;경남 산청군 단성면 호암로1320번길 90-31;;35.3550812;127.9176326;일반야영장;경상남도;산청군
100266;안면도마린오토캠핑장;2022-01-06;충남 태안군 안면읍 방포항길 95;;36.5051901;126.3347168;일반야영장;충청남도;태안군
100267;경상북도교육청 영덕오토캠핑장;2022-01-05;경북 영덕군 영덕읍 창포길 2-11;;36.4095938;129.4279817;일반야영장;경상북도;영덕군
100268;더파인캠핑;2022-01-04;경기 포천시 소흘읍 죽엽산로 515;;37.7884288;127.1660184;일반야영장;경기도;포천시
100269;초리풍경;2022-01-03;경기 파주시 법원읍 초리골길 180;;37.8538897;126.891493;일반야영장;경기도;파주시
100270;오블리비아테;2017-11-17;경기 가평군 가평읍 당목가일길 410-68;;37.8661486;127.5565451;일반야영장;경기도;가평군
100271;진천포레스트캠핑장;2022-02-09;충북 진천군 백곡면 백곡로 778;;36.8849707;127.3644199;일반야영장;충청북도;진천군
100272;더 하루만 캠핑장;2021-11-26;충북 괴산군 청천면 괴산로상신5길 6-10;;36.6344992;127.7823824;자동차야영장;충청북도;괴산군
100273;숲에안기다;2022-02-23;경북 고령군 덕곡면 야로덕곡로 483-68;;35.7718959;128.1777964;일반야영장;경상북도;고령군
100274;나정고운모래해변 오토캠핑장;2022-02-20;경북 경주시 감포읍 동해안로 1976;;35.7835746;129.4906609;일반야영장;경상북도;경주시
100275;마린힐캠핑장;2022-02-24;충북 제천시 수산면 옥순봉로 503-1;;36.9538742;128.2239348;일반야영장;충청북도;제천시
100276;청계호수 자작나무숲 캠핑장;2022-02-23;경기 포천시 일동면 운악청계로1480번길 22;;37.9382538;127.3397259;일반야영장;경기도;포천시
100277;모란골관광농원;2022-02-22;강원 인제군 북면 모란골길 131;;38.1423929;128.2683006;일반야영장;강원도;인제군
100278;더빌리지캠핑장;2022-02-22;충남 태안군 근흥면 마금로 184;;36.7490845;126.2280034;글램핑;충청남도;태안군
100279;황토둥지캠핑체험장;2022-02-21;충북 제천시 청풍면 비봉5길 45-22;;36.9925197;128.1338466;일반야영장;충청북도;제천시
100280;휘명빌리지;2022-02-21;경북 영천시 신녕면 신화로 120;;36.045975;128.8007247;일반야영장;경상북도;영천시
100281;솔내음캠핑장;2022-02-21;충북 제천시 봉양읍 명암로 466-11;;37.1880139;128.1331513;일반야영장;충청북도;제천시
100282;주원캠핑장;2022-02-15;경기 용인시 처인구 원삼면 보개원삼로1415번길 11-14;;37.1206426;127.307411;일반야영장;경기도;용인시
100283;리버앤캠프;2022-02-14;경기 연천군 청산면 백궁길 27;;38.0260281;127.1369629;자동차야영장;경기도;연천군
100284;꽃댕이오토캠핑장;2022-02-11;충북 제천시 백운면 화당로2길 176;;37.185234;127.9920708;일반야영장;충청북도;제천시
100285;한산도 충무공교실 야영장;2022-03-11;경남 통영시 한산면 한산일주로 622;;34.7807499;128.5010068;자동차야영장;경상남도;통영시
100286;준삼형제글램핑;2022-02-10;경기 연천군 왕징면 왕산로40번길 21;;38.057792;127.0135435;일반야영장;경기도;연천군
100287;캠프게이트 청평 카라반&캠핑;2022-02-10;경기 가평군 청평면 호반로 1025-26;;37.7124497;127.4874792;일반야영장;경기도;가평군
100288;글램조이(GLAMJOI);2022-02-09;인천 강화군 양도면 해안서로 689;;37.688647;126.3898723;글램핑;인천시;강화군
100289;가델관광농원;2022-02-09;충남 아산시 신정로 200-116 (초사동);;36.7379925;126.9720671;일반야영장;충청남도;아산시
100290;위드독스in포천;2022-02-08;경기 포천시 관인면 뗏마루길 128-26;;38.1206961;127.252352;일반야영장;경기도;포천시
100291;썬오브글램핑;2022-02-04;경기 포천시 이동면 금강로6263번길 14-2;;38.0880425;127.3897429;일반야영장;경기도;포천시
100292;(주)더사칠공 야영장;2016-02-26;인천 옹진군 영흥면 영흥서로380번길 101-89;;37.28419738627056;126.47175630797284;일반야영장;인천시;옹진군
100293;캠앤캠아지트;2022-03-10;경남 밀양시 단장면 구천1길 9-16;;35.5396942;128.9226331;일반야영장;경상남도;밀양시
100294;해가빛 캠핑장;2022-03-11;충남 서천군 서면 갯벌체험로 56-14;;36.1465183;126.5490636;일반야영장,자동차야영장;충청남도;서천군
100295;원산도비치캠핑장;2022-03-24;충남 보령시 오천면 원산도4길 59;;36.3650274;126.4343379;일반야영장;충청남도;보령시
100296;여수경도펜션카라반;2022-03-02;전남 여수시 대경도5길 25-8 (경호동);;34.7086285;127.7216264;카라반;전라남도;여수시
100297;양평온누리캠핑장;2022-03-02;경기 양평군 서종면 갈문길 29-1;;37.6472432;127.433658;일반야영장;경기도;양평군
100298;캠핑808;2022-07-13;충북 충주시 동량면 미라실로 689-1;;37.0097947;128.0485467;일반야영장,자동차야영장;충청북도;충주시
100299;두부삼촌캠프;2022-03-03;경기 파주시 파평면 청송로652번길 44;;37.9406758;126.8803426;자동차야영장;경기도;파주시
100300;사계오토캠핑장;2022-03-04;경북 포항시 남구 구룡포읍 일출로 203-20;;36.0123975;129.5757391;일반야영장;경상북도;포항시
100301;속리산365캠핑장;2022-03-07;경북 상주시 화북면 용화로 208-4;;36.5956006;127.8457045;일반야영장;경상북도;상주시
100302;아린 글램핑;2022-03-07;경기 가평군 설악면 유명로 2150-14;;37.698568;127.4597874;일반야영장;경기도;가평군
100303;영월 엄둔밸리 계곡캠핑장 ;2022-03-08;강원 영월군 무릉도원면 엄둔길 145;계곡펜션 계곡캠핑장 엄둔밸리;37.3097666;128.2350495;일반야영장,자동차야영장,카라반;강원도;영월군
100304;약초농원 야영장;2022-03-10;경북 청도군 운문면 운문로 1074-27;;35.667597;129.0050405;일반야영장;경상북도;청도군
100305;부싯돌 캠핑;2022-03-10;충남 천안시 동남구 북면 양곡1길 233-40;;36.8524255;127.2854063;자동차야영장;충청남도;천안시
100306;반가운캠핑장;2022-03-11;경상남도 거제시 동부면 구천리 647-8;;34.7980689;128.6272159;일반야영장;경상남도;거제시
100307;포레스트힐링캠프;2022-03-11;충북 단양군 가곡면 새밭로 240-1;;37.0083295;128.4052894;일반야영장,카라반;충청북도;단양군
100308;지맨 카라반파크;2022-03-11;경기 안양시 만안구 예술공원로 213 (석수동);;37.4205599;126.9291516;일반야영장;경기도;안양시
100309;해그라미;2022-03-14;전남 고흥군 금산면 평산길 98;;34.4909618;127.1769142;일반야영장;전라남도;고흥군
100311;캠핑스토리;2022-03-16;제주특별자치도 제주시 애월읍 하소로 746;;33.4175616;126.3949476;일반야영장,글램핑;제주도;제주시
100312;호노골 캠핑장;2022-03-16;경남 진주시 지수면 용봉로 561;;35.2504886;128.2272471;자동차야영장;경상남도;진주시
100313;오롯하다 키즈글램핑 가평;2022-03-17;경기 가평군 북면 가화로 1364-55;;37.902074;127.5137764;일반야영장;경기도;가평군
100314;누리별 캠핑장;2022-03-23;경북 김천시 부항면 부항로 1087-12;;35.9921294;127.9330717;일반야영장;경상북도;김천시
100315;별빛뜰애;2022-03-23;경북 봉화군 명호면 갈골길 227;;36.8232707;128.8645883;일반야영장;경상북도;봉화군
100316;옥천1382;2022-03-28;경남 창녕군 창녕읍 전평길 15-807;;35.4946002;128.5486027;자동차야영장;경상남도;창녕군
100317;제천J글램핑;2022-03-28;충북 제천시 백운면 운학길 326-9;;37.2270515;127.9984882;글램핑;충청북도;제천시
100318;캠프 애니말;2022-03-28;강원 양양군 현북면 말곡길 53-12;;38.0299309;128.6889562;카라반;강원도;양양군
100319;하선암 카라반 야영장;2022-03-29;충북 단양군 단성면 선암계곡로 1369-1;;36.9105982;128.3078304;일반야영장;충청북도;단양군
100320;고성 탑 글램핑 농원;2022-03-29;강원도 고성군 간성읍 탑동리 129 ;;38.347478;128.4665513;글램핑;강원도;고성군
100321;까치산 체험관광농원;2022-03-30;경기 용인시 처인구 모현읍 초부로54번길 40;;37.3099413;127.2456067;일반야영장;경기도;용인시
100322;7BLOCK(세븐블럭);2022-03-31;경기 포천시 해룡로 50-109 (설운동);;37.8601168;127.1387216;일반야영장,글램핑;경기도;포천시
100323;달사랑 캠핑장;2022-04-01;경기 포천시 신북면 아트밸리로 196;;37.9235414;127.2343096;일반야영장;경기도;포천시
100324;어썸캠핑장;2022-04-14;인천 강화군 화도면 마니산로 808-11;;37.6336404;126.4084801;일반야영장;인천시;강화군
100325;아우어캄푸스;2022-04-14;경기 양평군 청운면 신론로 360;;37.5606254;127.7752245;일반야영장,자동차야영장;경기도;양평군
100326;K-글램핑 애월점;2022-04-01;제주특별자치도 제주시 애월읍 소길남길 120;;33.4242393;126.3763973;글램핑;제주도;제주시
100327;토마스캠프&레드캐빈;2022-04-01;충북 청주시 상당구 낭성면 단재로 2254;;36.6237486;127.6425294;글램핑;충청북도;청주시
100328;한천관광농원야영장;2022-04-01;전남 화순군 한천면 죽헌로 376-34;;34.9739417;127.0098302;일반야영장;전라남도;화순군
100329;어은돌힐링야영장;2022-04-01;충남 태안군 소원면 연들길 84;;36.7536802;126.1319656;일반야영장;충청남도;태안군
100330;어은돌오토캠핑장;2022-04-06;충남 태안군 소원면 모항파도로 398-70;;36.7504829;126.1345572;일반야영장;충청남도;태안군
100331;용바위야영장;2022-04-07;전라남도 곡성군 목사동면 구룡리 293 ;;35.1366774;127.3137391;일반야영장;전라남도;곡성군
100332;하동하늘숲캠핑장;2022-04-08;경남 하동군 청암면 안양로 118;;35.1637549;127.8060107;자동차야영장;경상남도;하동군
100333;홍스랜드 글램핑;2022-04-08;제주특별자치도 제주시 애월읍 어음13길 25-45;;33.402903;126.3472261;일반야영장,글램핑;제주도;제주시
100334;포유카라반파크;2022-04-08;경북 포항시 남구 구룡포읍 동해안로4176번길 12;;35.9409187;129.5312614;카라반;경상북도;포항시
100335;오솔길 오토 캠핑장;2022-04-12;경북 경주시 산내면 상목길 108-3;;35.7421181;129.0752812;일반야영장;경상북도;경주시
100336;안성 별숲 캠핑장;2022-04-13;경기 안성시 죽산면 곰내미길 11;;37.0101674;127.4244674;자동차야영장;경기도;안성시
100337;따봄;2022-04-13;경기 하남시 서하남로576번길 119 (교산동);;37.5186743;127.2063617;일반야영장;경기도;하남시
100338;경산 갓바위캠핑장;2022-04-15;경북 경산시 와촌면 갓바위로 596;;35.9858308;128.7486933;자동차야영장;경상북도;경산시
100339;부항댐 생태휴양펜션;2022-04-15;경북 김천시 부항면 부항댐길 777;;35.9727065;127.9814267;카라반;경상북도;김천시
100340;유명산밸리 캠핑장;2022-04-15;경기 가평군 설악면 유명로 626;;37.6021815;127.4935246;일반야영장;경기도;가평군
100341;나아정;2022-05-15;경기 가평군 상면 축령로 183-102;;37.7723317;127.3527468;일반야영장;경기도;가평군
100342;골드바베큐 당일캠핑장;2022-04-18;경기 안성시 양성면 덕봉서원로 334-11;;37.0310242;127.1823351;일반야영장,글램핑;경기도;안성시
100343;코코캠핑;2022-04-19;충북 충주시 대소원면 외동길 192;;36.9201374;127.8413806;일반야영장;충청북도;충주시
100344;숲속에 머물다;2022-04-20;강원 춘천시 서면 툇골길 349;;37.9360606;127.6675007;자동차야영장;강원도;춘천시
100345;고든남 글램핑 & 셀프바베큐;2022-04-20;충남 서산시 인지면 서해로 3013;;36.7691306;126.4162019;카라반,글램핑;충청남도;서산시
100346;캠프 오어즈;2022-04-20;강원 영월군 무릉도원면 백년계곡길 116;;37.3746937;128.2718472;일반야영장;강원도;영월군
100347;한자루체험농원(휴앤아크);2022-04-21;강원 인제군 기린면 방동약수로 68;;37.9467875;128.388538;자동차야영장;강원도;인제군
100348;산들내캠핑장;2022-04-25;전북 정읍시 산외면 종운로 260;;35.6067201;127.0624224;글램핑;전라북도;정읍시
100349;청포대 일등캠핑장;2022-04-25;충남 태안군 남면 청포대길 125;;36.6440495;126.3004803;일반야영장;충청남도;태안군
100350;삼척안뜰캠핑장;2022-04-26;강원 삼척시 근덕면 내평길 267;;37.3250388;129.231694;일반야영장;강원도;삼척시
100351;엉클킴스 캠핑장;2022-04-26;경기 포천시 신북면 탑신로 940;;37.9336603;127.1406908;일반야영장;경기도;포천시
100352;곡성달빛 야영장;2022-04-26;전남 곡성군 죽곡면 남양마을1길 239-5;;35.1875396;127.3412483;일반야영장;전라남도;곡성군
100353;프라이빗 캠프닉;2022-04-26;충북 충주시 살미면 월악로 1233;;36.9135361;128.0673384;자동차야영장;충청북도;충주시
100354;소풍;2022-04-27;충북 진천군 광혜원면 화랑길 64-11;;36.9961147;127.435806;글램핑;충청북도;진천군
100355;팜앤투어 캠핑장;2022-04-29;충남 예산군 광시면 시목1길 70-41;;36.5424617;126.7882536;일반야영장;충청남도;예산군
100356;리틀 포레스트 캠핑;2017-09-26;경기 가평군 상면 임초밤안골로 230;;37.7510684;127.3663017;일반야영장;경기도;가평군
100357;유명산 258;2017-02-07;경기 가평군 설악면 유명산길 61-12;;37.5964304;127.4922293;일반야영장;경기도;가평군
100358;대야산 오토 캠핑장;2022-05-09;경북 문경시 가은읍 대야로 1306-22;;36.6760292;127.9590065;일반야영장;경상북도;문경시
100359;캠핑플레이스 포천점;2022-11-09;경기 포천시 내촌면 내촌로183번길 28-7;;37.7970616;127.2320417;일반야영장,글램핑;경기도;포천시
100360;세이지 힐 캠핑장;2022-05-10;강원 홍천군 남면 남노일로 479-24;;37.6442148;127.7700099;자동차야영장;강원도;홍천군
100361;리앤업파크타운;2022-05-03;경기 가평군 청평면 북한강로 2060;;37.6999312;127.3948524;일반야영장;경기도;가평군
100362;산바다 캠핑장;2022-05-06;경북 경주시 양남면 동남로 622;;35.6682252;129.3940373;일반야영장;경상북도;경주시
100363;펜캠2495체험학교;2022-05-23;경북 포항시 남구 동해면 호미로 2495;;36.0234201;129.5031419;일반야영장;경상북도;포항시
100364;스테리움 서천;2022-05-25;충남 서천군 마서면 삼연길64번길 19;;36.0367984;126.715208;일반야영장,자동차야영장,글램핑;충청남도;서천군
100365;둥근돌캠핑장;2022-05-17;경기 양평군 양동면 몰운고갯길 732-9;;37.4920834;127.7418036;자동차야영장;경기도;양평군
100366;또바기캠핑장;2022-05-30;경북 봉화군 소천면 구마동길 483;;36.9842311;128.9679815;일반야영장;경상북도;봉화군
100367;시간의바깥;2022-05-11;경남 남해군 이동면 보리암로 154;;34.7745708;127.9757635;일반야영장;경상남도;남해군
100368;여울카라반;2022-05-01;경기 포천시 이동면 여우고개로 658;;38.0482848;127.3775787;일반야영장;경기도;포천시
100369;포도밸리 캠핑장;2022-05-03;경기 가평군 상면 임초밤안골로 83;;37.7620205;127.3729465;일반야영장;경기도;가평군
100370;포천그린별캠핑장;2022-05-04;경기 포천시 신북면 탑신로 1431;;37.9566202;127.1230004;일반야영장;경기도;포천시
100371;서산벌천포캠핑장;2022-05-04;충남 서산시 대산읍 벌천포길 93-25;;36.9701571;126.335676;일반야영장,글램핑;충청남도;서산시
100372;울미숲야영장;2022-05-05;경기 포천시 군내면 꽃배산2길 73;;37.8635216;127.2319768;일반야영장;경기도;포천시
100373;도그랜드 캠핑장;2022-05-06;경기 가평군 조종면 운악청계로 238-84;;37.835525;127.3559449;일반야영장;경기도;가평군
100375;온드림캠프;2022-05-10;전북 완주군 운주면 금고당로 677;;36.0572217;127.3432703;일반야영장;전라북도;완주군
100376;camp 80;2022-05-12;경북 경산시 와촌면 갓바위로 67-25;;35.9656207;128.7879888;글램핑;경상북도;경산시
100377;왕산골 관광농원;2022-05-17;경북 구미시 고아읍 원대로18길 51-14;;36.1921326;128.321071;자동차야영장;경상북도;구미시
100378;종달 바베큐 캠핑;2022-05-18;제주특별자치도 제주시 구좌읍 세종로 353;;33.4987885;126.890701;일반야영장;제주도;제주시
100379;신박힐링캠프;2022-05-18;경남 하동군 적량면 삼화실로 759;;35.1385259;127.7586309;일반야영장;경상남도;하동군
100380;강천캠핑장;2022-05-20;경기 여주시 강천면 강천로 265;;37.2417692;127.7169022;자동차야영장;경기도;여주시
100381;산너미목장;2022-05-20;강원 평창군 미탄면 산너미길 225-36;;37.3639934;128.4702695;일반야영장;강원도;평창군
100382;선도리 갯벌 글램핑장;2022-05-24;충남 서천군 비인면 갯벌체험로 428-13;;36.1328472;126.5828149;글램핑;충청남도;서천군
100383;리우 캠핑장;2022-05-25;경북 문경시 농암면 청화로 886-402;;36.549275;127.9927925;일반야영장;경상북도;문경시
100384;대둔산 양촌 벤자민 글램핑;2022-05-27;충남 논산시 양촌면 바랑산2길 139-18;;36.1333092;127.2823378;카라반,글램핑;충청남도;논산시
100385;상동 선바위골 국민여가캠핑장;2022-05-30;강원 영월군 상동읍 선바위길 72;;37.1385799;128.8084158;자동차야영장,글램핑;강원도;영월군
100386;힐링캠프 제이앤엘(J&L);2022-05-30;경기 가평군 상면 수목원로 300-82;;37.7545758;127.3574604;일반야영장;경기도;가평군
100387;헤이캠프클럽;2022-05-30;울산 울주군 서생면 잿골길 72;;35.3684247;129.3486329;일반야영장;울산시;울주군
100388;포레스트캐빈앤캠프;2022-05-31;충북 제천시 덕산면 월악산로5길 17-141;;36.8884588;128.145408;일반야영장;충청북도;제천시
100389;두더지CAMP;2022-05-31;충북 제천시 한수면 봉화재길 711;;36.9498317;128.1209091;자동차야영장;충청북도;제천시
100390;그날이오면;2022-05-31;강원도 양양군 현북면 어성전리 792-6 ;;37.946245;128.6576978;일반야영장;강원도;양양군
100391;캠핑플레이;2016-10-04;경기 가평군 북면 논남기길 468-33;;37.9686787;127.4157684;일반야영장;경기도;가평군
100392;벅스글램핑;2022-06-13;전남 곡성군 입면 청계동로 989-16;;35.3138926;127.218421;글램핑;전라남도;곡성군
100393;어반티지 캠핑장;2022-06-07;인천 강화군 내가면 연촌길 115-10;;37.7324327;126.4113627;카라반,글램핑;인천시;강화군
100394;홀리데이캠핑파크;2021-04-23;경기 안산시 단원구 서위매봉길 14 (대부북동);;37.2842002;126.5685955;일반야영장,카라반;경기도;안산시
100395;가평캠핑장;2021-03-04;경기 가평군 상면 임초밤안골로 205;;37.7521716;127.3680093;일반야영장;경기도;가평군
100396;스마일캠핑장;2022-06-17;경기 포천시 이동면 금강로 6203;;38.0818603;127.3904659;일반야영장;경기도;포천시
100397;레저빌봉산;2020-12-04;경남 합천군 봉산면 서부로 4344-11;;35.6277091;128.0443549;일반야영장;경상남도;합천군
100398;반딧불이;2018-06-12;강원 영월군 무릉도원면 황정길 165-9;;37.2982221;128.144393;일반야영장;강원도;영월군
100399;보랏빛오토캠핑장;2022-06-07;강원 인제군 상남면 아홉사리로 2848;;37.8433982;128.2429555;일반야영장;강원도;인제군
100400;청도 사계절 캠핑장;2022-06-02;경북 청도군 운문면 운문로 1436-23;;35.6839484;128.9743429;일반야영장;경상북도;청도군
100401;캠프원;2022-06-15;경기 포천시 이동면 새낭로 621-13;;38.0321686;127.3263447;자동차야영장;경기도;포천시
100402;슈가스파글램핑;2020-12-21;경기 가평군 북면 가화로 1422-14;;37.90038;127.5110176;일반야영장;경기도;가평군
100403;가든글램핑 캠핑장;2020-12-28;충남 태안군 원북면 신두로 690-97;;36.836428;126.1899268;일반야영장;충청남도;태안군
100404;엣더몬;2021-06-07;경기 가평군 상면 원흥길 52-127;;37.8202538;127.3222053;일반야영장;경기도;가평군
100405;우니메이카 강화점;2022-06-17;인천 강화군 하점면 창후로228번길 26-16;;37.7691141;126.3641106;일반야영장;인천시;강화군
100406;은하수야영캠핑장;2021-05-31;충남 태안군 소원면 연들길 22;;36.7523095;126.1385368;일반야영장;충청남도;태안군
100407;잣숲캠핑장;2019-08-29;경기 포천시 신북면 지동길 114-13;;37.9379521;127.1205729;일반야영장;경기도;포천시
100408;파인벨리펜션 글램핑;2020-01-07;경기 포천시 화현면 봉화로 315-97;;37.8750647;127.274064;일반야영장;경기도;포천시
100410;윈드힐캠핑장;2022-06-02;인천 강화군 화도면 해안남로 1145-1;;37.6136457;126.4573084;자동차야영장,카라반;인천시;강화군
100411;청도자연휴양림;2022-06-17;경북 청도군 각북면 비슬산길 111-25;;35.7090812;128.5496911;일반야영장,자동차야영장;경상북도;청도군
100412;라라랜드;2022-06-02;충남 금산군 제원면 신안사로 487;;36.1612297;127.5539574;카라반;충청남도;금산군
100413;또보리 캠프;2022-06-02;강원도 횡성군 서원면 옥계리 167-3 ;;37.4191198;127.8624505;일반야영장;강원도;횡성군
100414;명암539펜션오토캠핑장;2022-06-03;충북 제천시 봉양읍 명암로 546;;37.1900564;128.1403357;일반야영장;충청북도;제천시
100415;메이플글램핑카라반2호점;2022-06-03;경기 포천시 이동면 화동로 2206-2;;38.0427027;127.3735639;일반야영장;경기도;포천시
100416;더자리;2022-06-03;경북 포항시 남구 호미곶면 호미로 1200;;36.0629398;129.5725198;일반야영장;경상북도;포항시
100417;용화산테마파크 캠핑장;2022-06-03;강원 춘천시 사북면 용화산로 76-72;;38.00041;127.7442277;일반야영장;강원도;춘천시
100418;그로브(grove)캠핑;2022-06-15;경북 청도군 운문면 신원3길 2-4;;35.6723432;129.0017429;일반야영장;경상북도;청도군
100419;여우하우야영장;2022-06-07;경기 시흥시 하우로94번길 39 (대야동);;37.4632034;126.7878976;일반야영장;경기도;시흥시
100420;히든캠프;2022-06-08;경기 안성시 죽산면 용설호수길 170-1;;37.0553303;127.4472319;자동차야영장;경기도;안성시
100421;스탈릿캠핑펜션;2022-06-08;강원 평창군 용평면 신약수로 261;;37.6719793;128.496873;자동차야영장;강원도;평창군
100422;녹고뫼캠핑장 관광농원;2022-06-09;제주특별자치도 제주시 애월읍 유수암평화10길 175-78;;33.4131549;126.4185384;일반야영장,자동차야영장,글램핑;제주도;제주시
100423;신불산 베이스캠프 오토캠핑장;2022-06-09;울산 울주군 삼남읍 자수정로 125;;35.5381194;129.0976705;자동차야영장;울산시;울주군
100424;올레유;2022-06-09;충남 태안군 원북면 동해길 201;;36.8157295;126.2374834;자동차야영장,카라반,글램핑;충청남도;태안군
100425;캠핑가는 날;2022-06-10;경남 밀양시 산내면 얼음골로 134-48;;35.5794765;128.9812267;일반야영장;경상남도;밀양시
100426;I(아이)캠핑;2022-06-27;강원도 양양군 서면 서림리 280-7 ;;37.9723155;128.5215231;일반야영장;강원도;양양군
100427;산달바다 캠핑장;2022-06-13;경남 거제시 거제면 거제남서로 4091;;34.8352047;128.544085;자동차야영장;경상남도;거제시
100428;(주)드윌;2022-06-13;경상남도 함안군 산인면 모곡리 809-4 ;;35.2806678;128.4514642;일반야영장;경상남도;함안군
100429;신월리 오토캠핑장;2022-06-13;전북 완주군 동상면 동상주천로 359;;35.9463761;127.317508;일반야영장;전라북도;완주군
100430;원시관광농원;2022-06-14;강원도 양양군 현남면 전포매리 90-1 ;;37.9425615;128.7660288;일반야영장;강원도;양양군
100431;한탄강 카누 캠핑장;2022-06-14;경기 연천군 전곡읍 선사로 270;;38.0133697;127.0758112;일반야영장;경기도;연천군
100432;무지개캠핑장;2022-06-15;경북 성주군 금수면 성주로 828;;35.9249781;128.1209562;일반야영장;경상북도;성주군
100433;별보다글램핑;2022-06-16;경남 합천군 가회면 황매산로 1060;;35.4826548;128.0233297;일반야영장;경상남도;합천군
100434;홀통183 캠핑장;2022-06-17;전남 무안군 현경면 홀통길 183;;35.060622;126.3332752;일반야영장;전라남도;무안군
100435;하조대 슈퍼카라반;2022-06-17;강원도 양양군 현북면 하광정리 632-1 ;;38.0225122;128.723236;카라반;강원도;양양군
100436;토로캠핑;2022-06-17;경기 가평군 북면 화악산로 942;화악산통나무펜션;37.9381493;127.5405948;일반야영장;경기도;가평군
100437;485캠핑장;2022-06-17;경기 가평군 설악면 다락재로485번길 162-69;;37.6491169;127.4508378;일반야영장;경기도;가평군
100438;알프스펜션 캠핑&글램핑;2022-06-17;경기 가평군 설악면 어비산길 24;;37.5989515;127.4949341;일반야영장;경기도;가평군
100439;가평자작나무글램핑앤캠핑;2022-06-17;경기 가평군 북면 화악산로 729-17;;37.9339118;127.5567259;일반야영장;경기도;가평군
100440;북두칠성;2022-06-17;경기 가평군 가평읍 태봉두밀로 493-24;;37.8133765;127.4480165;일반야영장,카라반,글램핑;경기도;가평군
100441;캠프99;2022-06-23;경기 가평군 조종면 명지산로 327-131;;37.9012897;127.3692762;일반야영장;경기도;가평군
100442;JIAN;2022-06-17;경기 가평군 설악면 유명산길 31;;37.5986275;127.4930571;일반야영장;경기도;가평군
100443;휴 오토 캠핑장;2022-06-17;경기 가평군 상면 녹수계곡로 125;;37.7742312;127.3939722;일반야영장;경기도;가평군
100444;불국사 한옥 글램핑;2022-06-20;경북 경주시 진티길 5-50 (진현동);;35.7827705;129.3279152;일반야영장;경상북도;경주시
100445;달별캠핑;2022-06-20;경기 양평군 양동면 고송길 32-12;;37.4862336;127.6996429;일반야영장;경기도;양평군
100446;아르테오스 빌리지;2022-06-21;경기 용인시 처인구 이동읍 백자로260번길 6-2;;37.2018971;127.1756001;일반야영장;경기도;용인시
100447;현대야영장;2022-06-22;경남 합천군 용주면 합천호반로 613;;35.5591898;128.0458768;일반야영장;경상남도;합천군
100448;밤부 사운드 캠핑장;2022-06-22;경북 경주시 천북면 갈곡삼막길 14-31;;35.8857674;129.2882486;카라반,글램핑;경상북도;경주시
100449;스테이온디엣지;2022-06-22;경기 가평군 청평면 남이터길 52-35;;37.6894493;127.3726809;일반야영장;경기도;가평군
100450;상동 장산 야영장;2022-06-23;강원 영월군 상동읍 태백산로 3707;;37.1093509;128.8660833;자동차야영장;강원도;영월군
100451;소리의섬;2022-06-24;충북 충주시 앙성면 남한강변길 218-5;;37.1153591;127.8045652;일반야영장;충청북도;충주시
100452;캠핑드림캠핑장;2022-06-24;충남 태안군 근흥면 용도로 410-80;;36.7024877;126.2327666;일반야영장;충청남도;태안군
100453;여유캠핑장;2022-06-24;강원 삼척시 근덕면 내평길 261;;37.3251008;129.2320081;자동차야영장;강원도;삼척시
100454;감포산업개발;2022-06-28;경북 경주시 감포읍 감포로 329-32;;35.8185953;129.5085418;카라반;경상북도;경주시
100455;지리산 가는길 903 캠핑장;2022-06-29;경남 함양군 휴천면 지리산가는길 903-3;;35.465067;127.6976066;자동차야영장;경상남도;함양군
100456;알지캠프266;2022-06-29;강원 홍천군 내촌면 광석로 262;;37.8348945;128.1019097;자동차야영장,카라반;강원도;홍천군
100457;문두리 캠핑장;2022-06-30;경북 경주시 산내면 문복로 333-42;;35.663639;129.0542404;일반야영장;경상북도;경주시
100458;우주캠프;2022-07-06;강원 원주시 신림면 신림황둔로 676;;37.2510174;128.1375783;자동차야영장;강원도;원주시
100459;화왕산오토캠핑장;2022-05-31;경남 창녕군 계성면 계성화왕산로 235;;35.4934736;128.5328649;자동차야영장;경상남도;창녕군
100460;pause 글램핑;2022-07-12;경북 청도군 각북면 송내길 89-52;;35.7232424;128.5675514;글램핑;경상북도;청도군
100461;블루밍 캠핑장;2022-07-13;경기 포천시 신북면 청신로 1046-1;;37.9561221;127.136071;일반야영장,자동차야영장,카라반;경기도;포천시
100462;인디언숲 캠프닉;2022-06-20;경기 동두천시 천보산로 537 (탑동동);;37.8797108;127.0976424;일반야영장,글램핑;경기도;동두천시
100463;고라니 오토캠핑장;2022-07-12;강원 고성군 토성면 신평골길 29-1;;38.2301706;128.5066759;자동차야영장;강원도;고성군
100464;도그팰리스 애견동반글램핑;2022-07-21;충남 당진시 고대면 탕주막길 116-11;;36.9752915;126.5426451;일반야영장,글램핑;충청남도;당진시
100465;도담캠핑장;2022-07-21;강원 홍천군 서면 개야로 357-18;;37.6918974;127.6399153;일반야영장;강원도;홍천군
100466;수피아글램핑펜션;2022-07-18;충북 제천시 봉양읍 배론성지길 64;;37.1571502;128.1028433;글램핑;충청북도;제천시
100467;돌고래 오토 캠핑장;2022-07-21;경북 상주시 화서면 문장로 503-7;;36.4726621;127.9582601;일반야영장;경상북도;상주시
100468;아워 포레스트;2022-07-22;경기 가평군 가평읍 가화로 440-117;;37.8551282;127.5090231;일반야영장,자동차야영장,글램핑;경기도;가평군
100469;지투(G2) 캠핑장;2022-07-28;경기 포천시 소흘읍 부흥로 370;;37.8079803;127.1559589;일반야영장;경기도;포천시
100470;아산스파포레;2022-07-29;충남 아산시 음봉면 아산온천로157번길 67;;36.8556847;126.9807073;카라반,글램핑;충청남도;아산시
100471;새솔캠핑장&펜션;2022-07-12;강원 영월군 무릉도원면 무릉법흥로 968-9;;37.343829;128.2800377;일반야영장;강원도;영월군
100472;금산 자연 오토캠핑장;2022-07-29;충남 금산군 남이면 휴양림로 375-15;;36.042413;127.4309057;일반야영장;충청남도;금산군
100473;노을숲캠핑장;2022-08-18;전북 부안군 변산면 격포로 453-49;;35.6064092;126.4876383;일반야영장;전라북도;부안군
100474;산중계곡캠핑장;2022-07-01;경남 거창군 북상면 송계사길 76;;35.8297842;127.8053203;일반야영장;경상남도;거창군
100475;육백고지 캠핑장;2022-07-04;충남 금산군 남이면 휴양림로 1135;;36.0699659;127.3881197;일반야영장;충청남도;금산군
100476;비발디 캠핑파크 설악오색점;2022-07-04;강원 양양군 서면 관대문길 31;;38.0748589;128.4973179;일반야영장,카라반;강원도;양양군
100478;라구나캠프;2022-07-05;경기 연천군 전곡읍 선사로 203-11;;38.010103;127.0690482;일반야영장;경기도;연천군
100479;리버파크;2022-07-06;강원 평창군 봉평면 금당계곡로 1468;;37.5283194;128.3996582;일반야영장;강원도;평창군
100480;캠프 우든브릿지;2022-07-06;강원 영월군 무릉도원면 두산길 299-8;;37.3048111;128.1647883;일반야영장;강원도;영월군
100481;주천강 캠핑장;2022-07-06;강원 영월군 주천면 무릉법흥로 15;;37.279031;128.2727962;자동차야영장;강원도;영월군
100482;포천 땡큐247 캠핑장;2022-07-07;경기 포천시 신북면 청신로 1240;;37.9532504;127.1524255;일반야영장;경기도;포천시
100483;테라스527 캠핑장;2022-07-07;경기 포천시 영북면 산정호수로 529;;38.0571123;127.3217751;일반야영장;경기도;포천시
100484;펫글램핑;2022-12-16;경북 포항시 남구 호미곶면 일출로 606-37;;36.0430264;129.5804904;글램핑;경상북도;포항시
100485;블루아일랜드 캠핑장;2022-07-08;충남 서천군 한산면 송마길 171;;36.1065014;126.8101946;일반야영장;충청남도;서천군
100486;무흘구곡펜션 야영장;2022-07-08;경북 성주군 금수면 성주로 322-10;;35.9176577;128.075655;일반야영장;경상북도;성주군
100487;지리산둥지 야영장;2022-07-11;경남 하동군 화개면 화개로 946-14;;35.2626803;127.6370874;일반야영장;경상남도;하동군
100488;북두칠성캠핑장;2022-07-11;충북 괴산군 칠성면 칠성로10길 27;;36.7661834;127.845342;일반야영장;충청북도;괴산군
100489;은고개 캠핑장;2022-07-12;경기 광주시 남한산성면 엄미길 171;;37.4750048;127.2224468;일반야영장;경기도;광주시
100490;그린글램핑;2022-07-12;전남 여수시 화양면 옥천로 998;;34.7397301;127.5888938;글램핑;전라남도;여수시
100491;캠핑힐(Camping hill);2022-07-13;충남 홍성군 서부면 서부서길 506;;36.5868877;126.4644882;일반야영장;충청남도;홍성군
100492;달그린캠프;2022-07-14;경기 연천군 미산면 청정로771번길 113-257;;38.0523882;126.9431204;자동차야영장;경기도;연천군
100493;블루카라반 캠핑장;2022-06-14;전남 완도군 신지면 명사십리길 85-185;;34.3273912;126.8131869;자동차야영장;전라남도;완도군
100494;십승지힐링캠핑장;2022-07-15;경북 상주시 화북면 중벌1길 26-6;;36.6040423;127.8261064;자동차야영장;경상북도;상주시
100496;오호(OHO!) 캠핑장;2022-07-15;강원 고성군 간성읍 고성중앙길 9;;38.3300349;128.5269305;자동차야영장;강원도;고성군
100498;칠봉두루뭉캠핑장;2022-07-18;강원도 원주시 호저면 산현리 513-17 ;;37.4399144;127.8924615;일반야영장;강원도;원주시
100499;반달곰이 살던 숲;2022-07-19;경기 화성시 정남면 정송길23번길 18;;37.1635651;126.9576251;일반야영장;경기도;화성시
100500;그리고 캠핑장;2022-07-20;충남 보령시 미산면 내평봉성길 342;;36.2273436;126.6942453;일반야영장;충청남도;보령시
100501;남서야영장;2022-07-20;경상북도 울릉군 서면 남서리 63-1 ;;37.4704559;130.8338106;일반야영장;경상북도;울릉군
100502;알프스캠핑;2022-07-20;경북 경주시 산내면 대현길 323;;35.7073081;129.0762639;자동차야영장;경상북도;경주시
100503;세모글램핑장;2022-07-20;경북 경주시 산내면 문복로 850-24;;35.7068123;129.0588293;글램핑;경상북도;경주시
100504;은성낚시공원캠핑장;2022-07-20;충북 제천시 봉양읍 논골로 242-4;;37.105765;128.1287101;일반야영장;충청북도;제천시
100505;토우마루캠핑장;2022-07-20;강원 정선군 화암면 거미대길 86-1;;37.352643;128.7445964;글램핑;강원도;정선군
100506;플레이방 월드;2022-07-21;경북 안동시 와룡면 이하오산로 96;;36.6153463;128.7165625;일반야영장;경상북도;안동시
100507;더힐링식물원 야영장;2022-07-21;충남 홍성군 홍동면 충절로344번길 62-42;;36.5582996;126.732843;일반야영장;충청남도;홍성군
100508;캠핑에 바나나;2022-07-21;충북 충주시 산척면 광동길 106-9;;37.0914932;127.9749458;일반야영장;충청북도;충주시
100509;가평 구름산 카라반;2022-07-21;경기 가평군 상면 수목원로 238-81;;37.7573547;127.357971;일반야영장,카라반;경기도;가평군
100510;지금쉬다;2022-07-21;경기 가평군 조종면 연인산로 453;;37.8467359;127.3729656;일반야영장;경기도;가평군
100511;우디안캠핑;2022-07-21;경기 가평군 가평읍 태봉두밀로406번길 93-17;;37.8218531;127.454137;일반야영장;경기도;가평군
100512;일루 글램핑 스파;2022-07-21;경기 가평군 북면 멱골로 116-6;;37.9007892;127.5683107;일반야영장;경기도;가평군
100513;캠핑가는 날;2022-07-22;경남 김해시 인제로 436 (삼방동);;35.2670743;128.8957684;일반야영장;경상남도;김해시
100514;바다랑 캠핑장;2022-07-22;경남 통영시 용남면 원평길 916;;34.9099682;128.444071;일반야영장;경상남도;통영시
100515;더 상상 글램핑;2022-07-22;경기 가평군 가평읍 경반안로 357-5;;37.8313781;127.4699249;일반야영장;경기도;가평군
100516;(주)구들택 겨울숲 지점;2022-07-22;경기 가평군 설악면 봉미산안길13번길 176-51;;37.6301797;127.536173;일반야영장;경기도;가평군
100517;태양힐링숲;2022-07-22;경기 파주시 적성면 설마천로 372;;37.9467693;126.9415457;일반야영장;경기도;파주시
100518;수기해수욕장 야영장;2024-01-22;인천 옹진군 북도면 시도로86번길 291-48;;37.5443102;126.43175;일반야영장;인천시;옹진군
100520;소백산자연누리야영장;2022-07-25;경북 영주시 풍기읍 삼가로 290;;36.9120262;128.5161807;카라반;경상북도;영주시
100521;대포숲캠핑장;2022-07-25;경남 산청군 삼장면 덕산대포로245번길 28;;35.2963538;127.8302846;일반야영장;경상남도;산청군
100522;동작휴스테이;2022-07-25;충남 태안군 안면읍 중신로 343;;36.453072;126.35104;자동차야영장,글램핑;충청남도;태안군
100523;노블레스 글렘핑 카라반;2022-07-25;강원 철원군 근남면 하오재로 991;;38.1557117;127.462096;카라반,글램핑;강원도;철원군
100524;평화누리체험장;2022-07-25;경기 연천군 장남면 원당로87번길 34;;37.9810263;126.8836625;일반야영장;경기도;연천군
100525;소설악 가족 캠핑장;2022-07-26;경기 광주시 남한산성면 남한산성로 407;;37.4605232;127.2124415;일반야영장;경기도;광주시
100526;라온밸리캠핑장;2022-07-26;충북 제천시 백운면 덕동로 561;;37.2149585;127.9514463;일반야영장;충청북도;제천시
100528;월아산 자연휴양림;2022-07-27;경남 진주시 진성면 달음산로 313;;35.199915;128.1941257;일반야영장,글램핑;경상남도;진주시
100529;캠핑온유;2022-07-27;울산 울주군 삼동면 보삼길 134-1;;35.4875384;129.1171908;일반야영장;울산시;울주군
100531;온새미로;2022-07-28;강원 영월군 무릉도원면 무릉법흥로 1166;;37.360531;128.2751704;일반야영장;강원도;영월군
100532;관악산 계곡 캠핑장;2022-07-28;서울특별시 관악구 신림동 205-1 관악산공원 내 ;;37.4620698;126.9481674;일반야영장;서울시;관악구
100533;바다랑캠핑장;2022-07-29;충남 태안군 이원면 원이로 2142-7;;36.9155549;126.3033543;일반야영장;충청남도;태안군
100534;합천 머물당 글램핑;2022-07-29;경남 합천군 가회면 황매산로 1070-6;;35.4829619;128.023869;일반야영장;경상남도;합천군
100536;Y글램핑;2022-07-29;충남 아산시 송악면 강당로115번길 12;;36.7231734;127.0188057;글램핑;충청남도;아산시
100537;봉봉카라반;2022-07-29;강원 동해시 석두골길 32 (망상동);;37.5968555;129.0774234;카라반;강원도;동해시
100538;남해 포레스 오토캠핑장;2022-08-01;경남 남해군 설천면 설천로695번길 35;;34.9238914;127.9110081;일반야영장,카라반;경상남도;남해군
100539;운일암개미캠핑장;2022-08-05;전북 진안군 주천면 삼거길 13;;35.9847692;127.3877629;일반야영장;전라북도;진안군
100540;캠핑사이다 가평 은빛물결점;2022-07-14;경기 가평군 조종면 대보간선로 260;;37.8023639;127.3666106;일반야영장,글램핑;경기도;가평군
100541;하늘소리 캠프;2022-08-17;경북 상주시 은척면 성주로 162-79;;36.5271193;128.0177792;글램핑;경상북도;상주시
100542;파라반;2022-08-01;강원 화천군 화천읍 평화로 623-13;;38.1019364;127.7585889;카라반;강원도;화천군
100543;반딧불 캠핑장;2022-08-16;경기 안성시 금광면 연내동길 138-37;;36.9714608;127.3823246;일반야영장;경기도;안성시
100544;꿈꾸는바다캠핑장;2022-08-10;충남 태안군 남면 청포대길 57-4;;36.6390774;126.3019495;자동차야영장;충청남도;태안군
100545;버드글램핑;2022-08-17;전북 군산시 강변로 29 (금암동);;35.9857213;126.7268994;글램핑;전라북도;군산시
100546;다올숲;2022-08-25;경기 포천시 신북면 청신로1059번길 78-22;;37.9607164;127.1438105;일반야영장;경기도;포천시
100547;캠프하다;2022-06-21;강원 홍천군 서면 개야마을길 68-27;;37.6929172;127.6318623;일반야영장;강원도;홍천군
100548;더 담다;2022-08-05;전남 화순군 이양면 람덕길 28-46;;34.8520417;127.0497672;자동차야영장;전라남도;화순군
100549;moon(문글램핑);2022-08-19;대전 동구 산내로 237 (하소동);;36.2080859;127.4396138;글램핑;대전시;동구
100550;한계2리 솔밭야영장;2022-08-12;강원 인제군 북면 한계리 896;;38.1349696;128.2682307;일반야영장,자동차야영장;강원도;인제군
100551;태백산국립공원 소도야영장;2022-08-30;강원 태백시 천제단길 181 (소도동);;37.1180784;128.9517389;일반야영장,자동차야영장,카라반;강원도;태백시
100552;강주학교캠프;2022-08-03;경남 함안군 법수면 장백로 675;;35.3223988;128.3298669;자동차야영장;경상남도;함안군
100553;우리고향 캠핑장;2022-08-03;전남 곡성군 오곡면 섬진강로 2075-15;;35.2651561;127.3326378;일반야영장;전라남도;곡성군
100554;숩쏙캠핑장;2022-08-03;충남 논산시 벌곡면 벌곡로330번길 29-44;;36.2198813;127.2985063;자동차야영장;충청남도;논산시
100555;스마일 캠핑장;2022-08-04;경북 경주시 산내면 대현길 309;;35.7080671;129.0755743;일반야영장;경상북도;경주시
100556;산산캠핑;2022-08-04;강원 영월군 무릉도원면 두산길 17;;37.3126368;128.1863243;자동차야영장;강원도;영월군
100557;햇골글램핑;2022-08-04;경기 용인시 처인구 백옥대로1191번길 63-7 (유방동);;37.2467383;127.2064444;일반야영장;경기도;용인시
100560;논논캠프;2022-08-08;경북 칠곡군 가산면 학하들안3길 36;;36.0948795;128.4903101;글램핑;경상북도;칠곡군
100561;서천 장항글램핑장;2022-08-08;충남 서천군 장항읍 장항산단로34번길 48-40;;36.0251116;126.6645073;글램핑;충청남도;서천군
100562;유성야영장 뱀브스힐;2022-08-08;대전 유성구 갑동로15번길 32 (갑동);;36.3623491;127.286824;일반야영장;대전시;유성구
100563;봉구 캠핑장;2022-08-09;경상북도 청도군 운문면 신원리 1132;;35.687073;128.9603793;일반야영장;경상북도;청도군
100565;썬캠프;2022-08-09;강원 인제군 인제읍 한석산로 767-19;;38.0774371;128.2528737;일반야영장;강원도;인제군
100566;스테이 인터뷰 금산;2022-08-10;충남 금산군 진산면 휴양림로 2423;;36.1385162;127.396926;카라반;충청남도;금산군
100567;마검포힐링캠핑장A;2022-07-26;충청남도 태안군 남면 신온리 952-32;;36.6088176;126.2899661;일반야영장;충청남도;태안군
100568;내린천 글램핑;2022-08-12;강원 인제군 인제읍 내린천로 6184;;38.0421569;128.209738;글램핑;강원도;인제군
100569;해목글램핑;2022-08-12;경기 가평군 조종면 운악청계로371번길 74-36;;37.8532276;127.3489979;일반야영장;경기도;가평군
100571;홍천도새울캠핑장;2022-08-16;강원 홍천군 북방면 도사곡길 778;;37.6874632;127.8031484;일반야영장;강원도;홍천군
100572;향수 오토캠핑장;2022-08-19;충북 옥천군 청산면 청산관기로 507;향수오토캠핑장  (구 대월폐교 );36.3711291;127.8161161;일반야영장;충청북도;옥천군
100573;도기도기캠프;2022-08-19;강원 횡성군 서원면 서원서로150번길 11;;37.4803585;127.8216064;카라반;강원도;횡성군
100574;더뷰인비토;2022-08-22;경남 사천시 서포면 거북길 290;;34.9709678;127.965114;자동차야영장;경상남도;사천시
100575;도토리 캠핑장;2022-08-22;강원 홍천군 서면 가일길 198;;37.6568611;127.5965402;일반야영장;강원도;홍천군
100576;보물섬 글램핑;2022-08-25;경남 남해군 남해읍 선소로76번길 41-20;;34.8455994;127.9112388;일반야영장,글램핑;경상남도;남해군
100577;오손도손캠핑장;2022-08-25;충북 제천시 장자터길 17 (자작동);;37.1231026;128.2860107;일반야영장;충청북도;제천시
100578;사천5901캠핑장;2022-08-29;경남 사천시 서포면 조도로 208;;35.0318145;127.9850116;일반야영장;경상남도;사천시
100579;별하숲캠핑장;2022-08-29;경북 문경시 가은읍 작약로 656;;36.6056014;128.0476426;일반야영장;경상북도;문경시
100581;중앙캠핑장;2023-08-04;충남 태안군 원북면 구례포길 47-20;;36.8863666;126.198504;일반야영장;충청남도;태안군
100582;라온캠프닉;2022-08-30;경기 화성시 남양읍 송림로68번길 30-13;;37.2208029;126.8261961;일반야영장;경기도;화성시
100583;안도마을 협동조합;2022-08-30;전남 여수시 남면 안도해변길 81;;34.4849901;127.8056797;일반야영장;전라남도;여수시
100584;279캠핑장;2022-08-30;강원 양양군 현북면 어성전길 279;;37.9401714;128.6683751;일반야영장;강원도;양양군
100585;에스원캠프;2022-08-31;경기 포천시 영북면 대회산길 79-28;;38.0669588;127.2383825;일반야영장;경기도;포천시
100586;돌담숲;2022-08-31;경북 청도군 매전면 청려로 3180;;35.698633;128.8242261;글램핑;경상북도;청도군
100587;자작자작 캠핑장;2022-08-31;강원 횡성군 청일면 봉명로 375-4;;37.6489593;128.1392045;일반야영장,카라반;강원도;횡성군
100588;더 플래츠 글램핑;2022-06-23;경기 가평군 상면 수목원로 181-28;;37.7622603;127.3645338;일반야영장;경기도;가평군
100589;342 camp;2022-09-07;강원 강릉시 구정면 새끼미길 53-11;;37.724587;128.8873785;일반야영장;강원도;강릉시
100590;라곰;2022-09-01;경기 연천군 신서면 합내로 493-1;;38.1577398;127.0658856;일반야영장;경기도;연천군
100591;야생초마을아미골;2022-09-21;경기 연천군 미산면 숭의전로222번길 140;;38.0184602;126.9549544;일반야영장,카라반;경기도;연천군
100592;(주)청도 프로방스 글램핑;2022-09-23;경북 청도군 화양읍 이슬미로 272-23;;35.6841012;128.7181845;글램핑;경상북도;청도군
100593;더캠핑타운 마이밸리;2022-09-06;강원 홍천군 서면 장락동길24번길 29;;37.6960043;127.5733499;일반야영장;강원도;홍천군
100594;산가원글램핑;2022-09-02;경남 산청군 금서면 쌍재로 117;;35.4141119;127.8194656;일반야영장;경상남도;산청군
100595;캠프위드펫&애견글램핑;2022-09-05;경기 가평군 청평면 호명리길 57-60;;37.7241632;127.4609008;일반야영장;경기도;가평군
100596;라곰글램핑;2022-10-06;충남 금산군 부리면 적벽강로 398;;36.070222;127.5893913;글램핑;충청남도;금산군
100597;노리터 키즈 캠핑장;2022-09-07;충북 청주시 상당구 낭성면 산성로 845;;36.6440067;127.5631131;자동차야영장;충청북도;청주시
100598;가보세캠핑장;2022-09-08;경기 포천시 이동면 포화로 274-4;;38.0737456;127.4143506;일반야영장;경기도;포천시
100599;라온아이 오토캠핑장;2022-09-15;충남 예산군 응봉면 응봉서로 280;;36.6354348;126.7638091;일반야영장;충청남도;예산군
100600;삼가농촌체험관;2022-09-15;충북 보은군 속리산면 삼가구병길 9;;36.490951;127.860038;일반야영장;충청북도;보은군
100601;북암농촌체험관;2022-09-15;충북 보은군 속리산면 속리산로 1220-6;;36.540877;127.7864468;일반야영장;충청북도;보은군
100602;원탑캠핑장;2022-09-19;충북 괴산군 청천면 화양로 834-12;;36.6804947;127.8123942;일반야영장;충청북도;괴산군
100603;청정 캠핑장;2022-09-20;경기 가평군 북면 화악산로 300;;37.9064231;127.5632786;일반야영장;경기도;가평군
100604;메이드캠퍼스;2022-09-21;경기 포천시 신북면 청신로1196번길 359-12;;37.9331022;127.1658136;일반야영장;경기도;포천시
100605;남해 에덴 캠핑장;2022-09-21;경남 남해군 창선면 동부대로 2058-12;;34.8405593;128.0111647;일반야영장;경상남도;남해군
100606;산내캠핑일기;2022-09-21;경북 경주시 산내면 오봉로 368;;35.7836413;129.0238387;일반야영장;경상북도;경주시
100607;홍성 캠프인코지 글램핑 카라반;2022-10-21;충남 홍성군 서부면 홍보로 1316;;36.5284795;126.4899021;일반야영장;충청남도;홍성군
100608;영동 한울 캠핑장;2022-09-21;충북 영동군 상촌면 민주지산로 2314;;36.1338012;127.8626692;자동차야영장;충청북도;영동군
100609;마의태자용소마을캠핑장;2022-09-21;강원 인제군 상남면 김부대왕로 2390;;37.8811096;128.2572351;자동차야영장;강원도;인제군
100610;하늘구니;2022-09-22;대구 군위군 삼국유사면 화산길 712-2;;36.1013298;128.7684592;일반야영장;경상북도;군위군
100611;산들바람 글램핑;2022-09-22;전남 보성군 벌교읍 조정래길 248-5;;34.8611511;127.3408829;글램핑;전라남도;보성군
100612;가야지캠핑장;2022-09-22;강원 평창군 용평면 궁항동길 106-27;;37.5631755;128.4455984;자동차야영장;강원도;평창군
100613;자유로캠핑장;2022-09-23;경기 파주시 탄현면 자유로 3902-66;;37.8291163;126.7207168;일반야영장;경기도;파주시
100614;(주)더술컴퍼니아카데미;2022-09-23;서울 종로구 창경궁로 229 (명륜4가);;37.5825402;126.9979229;일반야영장;서울시;종로구
100615;태백고원자연휴양림 자동차야영장;2022-09-26;강원 태백시 머리골길 153 (철암동);;37.1235926;129.0603818;일반야영장;강원도;태백시
100616;잭스캠프;2022-09-26;경기 포천시 신북면 청신로1196번길 359-18;;37.9329672;127.1662273;일반야영장;경기도;포천시
100617;오로라;2022-09-26;대전 서구 장안로 604 (장안동);;36.2100482;127.33727;글램핑;대전시;서구
100618;타이니포춘;2022-09-27;경기 포천시 신북면 청신로1196번길 359-17;;37.9334444;127.1659957;일반야영장;경기도;포천시
100619;나봄야영장;2022-09-27;전라북도 무주군 설천면 삼공리 449-3 ;;35.8937903;127.7769061;일반야영장;전라북도;무주군
100620;영도 마리노 오토캠핑장;2022-09-28;부산광역시 영도구 청학동 330-119 ;;35.1021476;129.061384;일반야영장,자동차야영장,카라반;부산시;영도구
100621;하소담캠핑장;2022-09-29;경기 포천시 영중면 삼산마을길 20;;38.0237775;127.2625021;일반야영장;경기도;포천시
100622;제이제이파크;2022-09-29;대전 대덕구 회덕로33번길 156 (신대동);;36.3936977;127.4166709;자동차야영장;대전시;대덕구
100623;수도캠핑장;2022-09-30;경남 창원시 진해구 수도로40번길 5 (수도동);;35.0851757;128.7474132;자동차야영장;경상남도;창원시
100624;가네골농원;2022-09-30;강원 정선군 정선읍 군언길 133;;37.3699725;128.6102834;자동차야영장,글램핑;강원도;정선군
100625;남이섬 마리나 카라반;2022-09-30;강원 춘천시 남산면 북한강변길 142;;37.8394502;127.5327943;일반야영장,카라반;강원도;춘천시
100626;가평랜드 캠핑&카라반;2022-10-04;경기 가평군 조종면 대보간선로611번길 479;;37.826529;127.4057819;일반야영장,카라반;경기도;가평군
100627;수복캠핑장;2022-10-04;강원 춘천시 사북면 화악지암길 297-19;;37.9765019;127.5944939;일반야영장;강원도;춘천시
100628;비타민 팜 오토캠핑장;2022-10-06;경남 밀양시 산내면 남명리 4;;35.5805279;128.9775932;일반야영장;경상남도;밀양시
100629;위드힐링 캠핑장;2022-10-11;강원 영월군 주천면 미다리길 74;;37.2902186;128.3273375;일반야영장;강원도;영월군
100630;알프스밸리 캠핑나라;2022-10-06;강원 홍천군 화촌면 구룡령로 1016-27;알프스밸리  캠핑나라;37.7478748;128.0439875;일반야영장;강원도;홍천군
100631;해밀365 야영장;2022-10-04;경기 양평군 용문면 용문산로 576-12;;37.5422071;127.5882184;일반야영장;경기도;양평군
100632;쓰리웨이펜션;2016-10-28;강원 홍천군 홍천읍 높은터로 332;;37.6397745;127.8515728;일반야영장;강원도;홍천군
100633;고흥 거금락 캠핑장;2022-10-18;전남 고흥군 금산면 거금일주로 3116-19;;34.4775892;127.1341211;일반야영장,글램핑;전라남도;고흥군
100634;캠프202;2022-10-18;충북 충주시 앙성면 남한강변길 112;;37.1087371;127.8111562;일반야영장;충청북도;충주시
100635;풀비치카라반;2022-10-04;경북 포항시 북구 청하면 해안로 2272;;36.1956732;129.3725609;카라반;경상북도;포항시
100636;하이락카라반;2022-10-04;전남 여수시 돌산읍 마상포길 40-1;;34.7100833;127.7689898;카라반;전라남도;여수시
100637;용대 황지 캠핑장;2022-10-04;강원 인제군 북면 진부령로 123;;38.2250401;128.3661929;자동차야영장;강원도;인제군
100638;두밀 노천스파 글램핑;2022-10-04;경기 가평군 가평읍 태봉두밀로 421-28;;37.8151834;127.4538035;일반야영장,글램핑;경기도;가평군
100639;해해해 캠핑장;2022-10-06;경남 고성군 거류면 화당로 379;;34.9804076;128.4405666;일반야영장;경상남도;고성군
100640;오숲도숲;2022-10-06;경북 포항시 북구 흥해읍 사방공원길 583;;36.1612144;129.3954653;자동차야영장;경상북도;포항시
100641;별그리다 캠핑장;2022-10-06;강원 영월군 무릉도원면 무릉법흥로 549;;37.3201674;128.2577718;일반야영장;강원도;영월군
100642;주식회사 대부도펜션시티;2022-10-06;경기 안산시 단원구 공마루길 68-97 (대부동동);;37.2340931;126.5892138;일반야영장;경기도;안산시
100643;서천 국민여가 캠핑장;2022-10-07;충남 서천군 마서면 장산로 856;;36.0184355;126.7385344;자동차야영장;충청남도;서천군
100644;가리점캠핑장;2022-10-07;충북 단양군 단양읍 노동1길 14-1;;36.9509528;128.3752413;자동차야영장;충청북도;단양군
100645;보리캠핑장;2022-10-11;강원 횡성군 둔내면 용현로 112;;37.531767;128.225901;카라반;강원도;횡성군
100646;디엠지라운지(DMZ LOUNGE);2022-10-11;경기 파주시 탄현면 새오리로161번길 90;;37.8004048;126.6835875;일반야영장;경기도;파주시
100647;어깨동무 카라반 캠핑;2022-10-11;인천 강화군 길상면 동검길65번길 88-8;;37.5883546;126.5185456;일반야영장;인천시;강화군
100648;마실야영장;2022-10-12;전남 장성군 북하면 담장로 1127-54;;35.3925938;126.9065949;일반야영장;전라남도;장성군
100649;아이올레 인 포레스트 캠핑;2022-10-12;제주특별자치도 제주시 구좌읍 덕행로 363;;33.5175712;126.787536;일반야영장;제주도;제주시
100650;호수도도글램핑장;2022-10-12;전라남도 광양시 봉강면 지곡리 산 3-1 ;;35.0002458;127.5934749;일반야영장;전라남도;광양시
100651;수인야영장;2022-10-13;강원 양구군 양구읍 소양호로 1086-13;;38.0244377;127.9363261;자동차야영장;강원도;양구군
100652;서산버드랜드 야영장;2022-11-13;충남 서산시 부석면 천수만로 655-73;;36.6295138;126.3783232;일반야영장;충청남도;서산시
100653;Moon글램핑;2022-10-18;경기 안산시 단원구 대부황금로 90 (선감동);;37.1998281;126.6451584;일반야영장;경기도;안산시
100654;딥포레스트캠핑장;2022-10-20;경기도 포천시 신북면 심곡리 704-3;;37.9236539;127.1742228;일반야영장;경기도;포천시
100655;슈필라움글램핑;2022-10-20;경기도 화성시 서신면 제부리 3-68;;37.1740382;126.6270087;일반야영장;경기도;화성시
100656;재오개캠핑장;2022-10-21;충북 충주시 살미면 충주호수로 1872;;36.9509289;127.9813463;자동차야영장;충청북도;충주시
100657;용장 글램핑;2022-10-21;경북 경주시 내남면 용장1길 18;;35.7749306;129.2022859;일반야영장;경상북도;경주시
100658;물왕호수캠핑;2022-10-21;경기 시흥시 물왕수변로 178 (산현동);;37.3786646;126.8415456;일반야영장;경기도;시흥시
100659;월송리캠프;2022-10-24;강원 춘천시 서면 월송길 381-21;;37.9235042;127.6688754;일반야영장;강원도;춘천시
100661;리버위드 글램핑;2022-10-25;강원 춘천시 남면 박암관천길 899;;37.7212947;127.5098162;일반야영장;강원도;춘천시
100662;소휴;2022-10-26;전남 화순군 화순읍 백천로 632;;35.0847548;127.0183567;일반야영장,글램핑;전라남도;화순군
100663;복골캠핑장;2022-10-27;경남 거제시 삼거6길 4-15 (삼거동);;34.8482988;128.6531836;자동차야영장;경상남도;거제시
100664;금동휴양림캠프2;2022-10-27;경기 포천시 신북면 탑신로1112번길 7-40;;37.9436828;127.1290861;일반야영장;경기도;포천시
100665;달리도 오토캠핑장;2022-10-27;전남 목포시 달리길 329 (달동);;34.7770717;126.3281211;일반야영장;전라남도;목포시
100666;포레스트 캠핑장;2022-10-27;충남 논산시 벌곡면 수락로 903-11;;36.1962419;127.2629587;일반야영장;충청남도;논산시
100667;까치고개;2022-10-27;충남 천안시 동남구 수신면 장산서길 14-1;;36.7301815;127.2973329;일반야영장;충청남도;천안시
100668;숲속의쉼터 키즈;2022-10-27;경기 연천군 전곡읍 양원로 318;;37.971439;127.0360446;일반야영장;경기도;연천군
100669;주암2123;2022-10-27;울산 울주군 상북면 배내주암길 56-1;;35.5680597;129.0187367;일반야영장;울산시;울주군
100670;라운드힐 905;2022-10-28;대구 달성군 가창면 주리2길 42;;35.752993;128.6239986;일반야영장;대구시;달성군
100671;홍천 뜨란 오토캠핑장;2022-10-31;강원 홍천군 서면 개야마을길 144-10;;37.6968083;127.636274;자동차야영장;강원도;홍천군
100672;아이월관광농원;2022-10-31;경기 포천시 창수면 한탄강1로 134-119;;38.0556465;127.2092814;일반야영장;경기도;포천시
100673;필립스가든;2022-10-31;경남 김해시 생림면 인제로 545-61;;35.275578;128.8876679;일반야영장;경상남도;김해시
100674;로드 96 캠핑&카라반;2022-10-31;전남 영광군 백수읍 해안로 672-31;;35.3307461;126.3828791;일반야영장;전라남도;영광군
100675;을수골 별빛계곡;2022-10-31;강원 홍천군 내면 을수길 127;;37.8178687;128.4577053;일반야영장;강원도;홍천군
100676;캠프달링;2022-11-04;충남 공주시 정안면 개티길 20;;36.6327707;127.0788538;일반야영장,글램핑;충청남도;공주시
100677;캠핑중DOG;2022-11-09;강원 홍천군 북방면 팔봉산로 1802;;37.7204822;127.7524583;일반야영장;강원도;홍천군
100678;플로라 캠프;2022-11-10;경남 의령군 낙서면 낙서로 553-13;;35.4806945;128.379119;자동차야영장;경상남도;의령군
100679;낭만팩토리;2022-11-16;경기 평택시 안중읍 덕우리 115-30;;37.0057297;126.911096;일반야영장;경기도;평택시
100680;오샤;2022-05-23;경기 가평군 북면 소법리 627-54;;37.8973678;127.5542861;일반야영장;경기도;가평군
100681;솔밭사이로 캠핑&펜션;2022-11-09;강원 영월군 무릉도원면 중방안길 14-2;;37.2911507;128.2710403;일반야영장;강원도;영월군
100682;양평힐링계곡 오토캠핑장;2022-11-03;경기 양평군 서종면 중미산로 772-27;;37.6010371;127.4230682;자동차야영장;경기도;양평군
100683;오스테이;2022-11-21;경남 산청군 시천면 남대길 7-11;;35.2700839;127.7537386;글램핑;경상남도;산청군
100684;태안노을과바다캠핑앤글램핑;2022-11-17;충남 태안군 원북면 신두해변길 122;;36.8355206;126.182579;자동차야영장;충청남도;태안군
100685;백운썬밸리캠핑장;2022-11-17;충북 제천시 백운면 구학산로 600;;37.1789641;127.9925747;일반야영장;충청북도;제천시
100686;자장캠핑장;2022-11-16;경기 파주시 적성면 국사로 303;;37.9611752;126.869281;일반야영장;경기도;파주시
100687;상사호 오토 캠핑장;2022-11-02;전남 순천시 상사면 땅고개길 111;;34.9394629;127.4620787;자동차야영장;전라남도;순천시
100688;가평더캠프카라반글램핑;2022-11-02;경기 가평군 설악면 한서로156번길 12-62;;37.6688396;127.5037181;일반야영장;경기도;가평군
100689;돔 아일랜드 304;2022-11-02;경기 가평군 조종면 명지산로 137-56;;37.8873231;127.3623971;일반야영장,글램핑;경기도;가평군
100691;대권오토야영캠핑장;2022-11-04;경남 통영시 용남면 지도동부길 10-119;;34.9182172;128.4740957;자동차야영장;경상남도;통영시
100692;풀꽃이랑 캠핑장;2022-11-08;경북 성주군 가천면 포천계곡로 238;;35.8722271;128.1552055;일반야영장;경상북도;성주군
100693;춘천 더숲 캠핑장;2022-12-06;강원도 춘천시 남산면 산수리 513-5;;37.6937569;127.6460339;일반야영장;강원도;춘천시
100694;태양&바다 카라반;2022-11-09;경북 포항시 남구 호미곶면 해맞이로 82;;36.0714577;129.5689344;일반야영장;경상북도;포항시
100695;숲 나들이 야영장;2022-11-09;강원 횡성군 서원면 신평석화로 459;;37.442186;127.8493021;일반야영장;강원도;횡성군
100696;잭슨글램핑;2022-11-11;충북 충주시 금가면 김생로 1179;;37.0405193;127.8665003;일반야영장;충청북도;충주시
100697;아라캠프;2022-11-11;강원 고성군 죽왕면 동해대로 6130-2;;38.3462352;128.5113873;일반야영장;강원도;고성군
100698;법수치오토캠핑장;2022-11-14;강원 양양군 현북면 법수치길 965;;37.9100292;128.618051;자동차야영장;강원도;양양군
100699;캠플336캠핑장;2022-11-15;전남 화순군 동복면 연동길 75;;35.0419301;127.1154886;자동차야영장;전라남도;화순군
1007;마령큰시내들캠핑장;2016-11-17;전북 진안군 마령면 강정리 655-1 ;;35.7386448;127.3443765;일반야영장,글램핑;전라북도;진안군
100700;칠갑산관광농원;2022-11-15;충남 청양군 화성면 구숫골길 105-19;;36.4356073;126.7257635;일반야영장;충청남도;청양군
100701;캠프 인더숲;2022-11-17;강원 홍천군 내촌면 가령폭포길 34;;37.8248474;128.1548976;자동차야영장;강원도;홍천군
100702;빌리풀램핑;2022-11-17;경기도 양평군 단월면 산음리 852-9 ;;37.5928418;127.5851717;일반야영장;경기도;양평군
100703;스톤브룩 캠핑장;2022-11-17;경기 연천군 군남면 진은로606번길 110;;38.0441198;127.0575714;일반야영장;경기도;연천군
100704;옥당걸숲속관광농원;2022-11-18;경북 김천시 부항면 안간1길 700;;36.0055626;127.9559383;자동차야영장;경상북도;김천시
100705;초정216;2022-11-21;충북 청주시 청원구 내수읍 미원초정로 1238;;36.7126713;127.6088597;일반야영장;충청북도;청주시
100706;벤캠프(Ben Camp);2022-11-21;경기 포천시 영북면 산정호수로 834-12;;38.0760751;127.3237208;일반야영장;경기도;포천시
100707;메이플 포레스트;2022-11-21;강원 양양군 현남면 북죽로 110-25;;37.9808572;128.7402176;일반야영장;강원도;양양군
100708;일영Star캠핑장;2022-11-22;경기 양주시 장흥면 유원지로 406-144;;37.7146682;126.9498966;자동차야영장;경기도;양주시
100709;THE쉼오토캠핑장;2022-11-22;충남 태안군 태안읍 안도내길 58-9;;36.8132835;126.3285545;자동차야영장;충청남도;태안군
100710;가평다온캠핑장;2022-11-23;경기 가평군 조종면 운악청계로 351-42;;37.8463503;127.3536065;일반야영장;경기도;가평군
100711;루체른;2022-11-23;경기 가평군 조종면 운악청계로333번길 19;;37.8449803;127.3534311;일반야영장;경기도;가평군
100712;윈드밸리 야영장;2022-11-24;강원 양양군 서면 구룡령로 1158;;37.9144025;128.501296;일반야영장;강원도;양양군
100713;이스트 몽 블루 카라반 캠핑;2022-11-28;제주특별자치도 제주시 구좌읍 종달동길 73-1;;33.4915495;126.9071173;일반야영장,카라반;제주도;제주시
100714;연화동권역 야영장;2022-11-30;경상남도 의령군 낙서면 여의리 287-5 ;;33.4915495;126.9071173;일반야영장;경상남도;의령군
100715;마이웨이 리조트 관광농원;2022-05-23;경남 밀양시 산외면 엄광길 103-14;;35.5368601;128.8004903;일반야영장,글램핑;경상남도;밀양시
100716;쏘쿨이네 글램핑;2022-12-01;경기 포천시 이동면 화동로 2359;;38.0531922;127.3833335;일반야영장;경기도;포천시
100717;대양 야영장;2022-12-08;경북 칠곡군 가산면 호국로 1252-21;;36.0507939;128.4952388;일반야영장;경상북도;칠곡군
100718;알맹이캠핑;2022-12-14;경기 포천시 내촌면 금강로3046번길 106;;37.8291195;127.2711473;일반야영장,글램핑;경기도;포천시
100719;가나캠핑장;2022-12-06;경북 경주시 내남면 안심길 357;;35.7320462;129.1401446;일반야영장;경상북도;경주시
100720;주식회사 수피아 캠핑체험장;2022-08-08;대전 유성구 갑동로15번길 32 (갑동);;36.3623491;127.286824;글램핑;대전시;유성구
100721;캠핑 굄성;2022-12-21;충남 홍성군 홍북읍 홍북로 810;;36.6569912;126.7183498;일반야영장;충청남도;홍성군
100722;GO(지오)글램핑;2022-12-08;충북 괴산군 청천면 대티길 284;;36.6960025;127.8005961;일반야영장;충청북도;괴산군
100723;그라디언트;2022-12-05;경북 칠곡군 동명면 구남로 93;;35.9868722;128.5742267;일반야영장;경상북도;칠곡군
100724;노섬브리아 야영장;2022-12-05;강원 횡성군 둔내면 청태산로154번길 220-40;;37.5087582;128.2575596;일반야영장;강원도;횡성군
100725;비니비니글램핑;2022-12-07;경기 포천시 내촌면 금강로 2625-37;;37.8044709;127.2445513;글램핑;경기도;포천시
100726;하동노량투다리오토캠핑장;2022-12-12;경남 하동군 금남면 노량해안길 129;;34.9477998;127.8699072;일반야영장;경상남도;하동군
100727;비토애 럭셔리글램핑 나주점;2022-12-12;전남 나주시 산포면 산남로 67-47;;35.0459985;126.8219644;일반야영장;전라남도;나주시
100728;통영에코파크;2022-12-13;경남 통영시 산양읍 연대길 123;;34.7393126;128.3994167;일반야영장;경상남도;통영시
100729;레이크202 캠핑장;2022-12-13;경기 안성시 죽산면 용설호수길 202;;37.0529475;127.4447534;일반야영장;경기도;안성시
100730;낭성 캠핑장;2022-12-16;충북 청주시 상당구 낭성면 호정전하울길 99-50;;36.6127895;127.6052664;일반야영장;충청북도;청주시
100731;하늘아래 캠핑;2022-12-16;충남 보령시 오천면 원산도6길 47-70;;36.3650148;126.418231;일반야영장;충청남도;보령시
100733;타닥타닥캠핑장;2022-12-22;충북 괴산군 청천면 도경로후영5길 79-5;;36.6939061;127.8087993;일반야영장;충청북도;괴산군
100734;스토리숲(story숲);2022-12-20;경기 포천시 화현면 봉화로 201-80;;37.8660745;127.2753721;일반야영장;경기도;포천시
100735;별품은 숲속 캠핑장;2022-12-20;경북 칠곡군 동명면 구남로 309;;36.0050839;128.5761186;일반야영장;경상북도;칠곡군
100736;웰빙문화테마마을;2022-12-20;경상북도 영덕군 남정면 남호리 296-1 ;;36.327429;129.371795;일반야영장;경상북도;영덕군
100737;고흥만 수변노을공원 해변캠핑장;2022-12-20;전남 고흥군 도덕면 고흥만로 1137;;34.6475274;127.1970855;일반야영장;전라남도;고흥군
100738;세제골농원 숲속야영장;2022-12-20;충남 아산시 영인면 윤보선로 52-16;;36.8822361;126.9985978;일반야영장;충청남도;아산시
100739;쌍근오토캠핑장;2022-12-21;경남 거제시 남부면 남부해안로 1054;;34.7639995;128.5839805;자동차야영장;경상남도;거제시
100740;가평 아이섬 풀 글램핑;2022-12-22;경기 가평군 북면 꽃넘이길 115-115;;37.8998714;127.5127458;일반야영장;경기도;가평군
100741;원더풀 글램핑 앤 카라반;2022-12-22;경기 가평군 상면 임초밤안골로 117-27;;37.7591209;127.3725169;카라반,글램핑;경기도;가평군
100742;가평 물소리 캠핑장;2022-12-22;경기 가평군 조종면 명지산로 345;;37.9026163;127.3740963;일반야영장;경기도;가평군
100743;아인글램핑;2022-12-22;경기 가평군 북면 제령아랫말길 67-30;;37.8869977;127.5403662;일반야영장;경기도;가평군
100744;안면도힐링캠핑장;2022-12-23;충남 태안군 안면읍 갯개길 39;;36.5501728;126.3345879;일반야영장;충청남도;태안군
100745;온더비치 글램핑;2022-12-23;인천 옹진군 영흥면 선재로306번길 27-125;;37.2570984;126.5169094;글램핑;인천시;옹진군
100746;다도해해상국립공원 구계등야영장;2022-12-26;전남 완도군 완도읍 구계등길 47-1;;34.2983381;126.7092746;일반야영장;전라남도;완도군
100747;고래캠핑;2022-12-27;전남 무안군 해제면 참새골길 30;;35.0647963;126.2875741;일반야영장;전라남도;무안군
100748;하늘숲 오토캠핑장;2022-12-27;전북 완주군 동상면 대아수목로 439-2;;35.9941126;127.3276265;일반야영장;전라북도;완주군
100749;한솔 스테이;2022-12-28;경기 연천군 장남면 장백로278번길 4;;37.9853995;126.8864997;자동차야영장;경기도;연천군
100750;월현 포레스트;2022-12-28;강원 횡성군 강림면 월안길 251;;37.3696206;128.1780646;일반야영장;강원도;횡성군
100751;더 코지 캠핑장;2022-12-29;충남 논산시 노성면 노성로322번길 42-10;;36.2779356;127.103684;자동차야영장;충청남도;논산시
100752;일랑일랑 애견캠핑 앤 카라반;2022-12-30;경북 칠곡군 왜관읍 강변대로 723;;35.9426485;128.4020206;일반야영장,카라반;경상북도;칠곡군
100753;이편한캠핑;2022-12-30;강원 평창군 봉평면 흥정계곡4길 211;;37.6608898;128.310951;일반야영장;강원도;평창군
100754;경안글로브;2022-12-28;경북 경주시 강동면 새마을로 1124-50;;36.0517864;129.2574974;일반야영장;경상북도;경주시
100755;트라움 풀 빌라 글램핑&카라반;2023-01-06;경기 가평군 상면 임초리 92-2;;37.769668;127.3777376;일반야영장,글램핑;경기도;가평군
100756;웻 자켓;2021-12-22;경기 포천시 이동면 늠바위길 201-3;;38.0293388;127.3879245;일반야영장;경기도;포천시
100757;안양 산마을캠핑장;2022-12-14;경기 안양시 동안구 평촌대로 452-2 (비산동);;37.4104862;126.9518385;일반야영장,자동차야영장;경기도;안양시
100758;광양 해뜰 오토 캠핑장;2023-01-18;전남 광양시 봉강면 신촌길 140;;35.0629621;127.553621;자동차야영장;전라남도;광양시
100759;럭셔리풀빌라 글램핑 풀램핑;2022-06-22;경기 가평군 청평면 남이터길 52-35;;37.6894493;127.3726809;일반야영장;경기도;가평군
100760;두랭이해변 오토 캠핑장;2023-01-18;전남 여수시 율촌면 두언길 106-51;;34.8286759;127.5336159;일반야영장;전라남도;여수시
100761;클럽아일랜드 글램핑카라반;2023-01-03;경기 포천시 신북면 지동길 199-10;;37.9305369;127.1223147;카라반;경기도;포천시
100762;북한산 둘레캠프;2023-01-06;서울 은평구 연서로 608-2 (진관동);;37.6479268;126.9389557;일반야영장,글램핑;서울시;은평구
100763;숲스토리야영장;2023-01-20;전북 진안군 정천면 봉학로 419-30;;35.8891897;127.3947272;자동차야영장;전라북도;진안군
100764;산우물 북 캠핑장;2022-01-19;경기 안성시 양성면 산정산우물길 138;;37.0819697;127.1958115;일반야영장;경기도;안성시
100765;굿나잇 캠핑장;2023-01-11;강원 홍천군 화촌면 도심리길 151;;37.7841138;127.8966678;일반야영장;강원도;홍천군
100766;테토양평캠핑장;2023-01-17;경기 양평군 단월면 분지울2길 6-4;;37.6152164;127.6701829;자동차야영장;경기도;양평군
100767;별하글램핑;2023-01-27;충남 공주시 유구읍 구계연종길 108;;36.5789883;126.9854872;일반야영장,글램핑;충청남도;공주시
100768;라포레소호;2023-01-19;울산 울주군 상북면 소호와리길 71-1;;35.6693397;129.0816594;일반야영장,글램핑;울산시;울주군
100769;오션힐즈 숲속야영장;2023-01-03;전남 고흥군 동일면 우주로 2933-5;;34.4817019;127.4618492;일반야영장;전라남도;고흥군
100770;태봉왓;2023-01-05;제주특별자치도 서귀포시 대정읍 가파로 101;;33.1683488;126.2757007;일반야영장;제주도;서귀포시
100771;더파크캠핑;2023-01-05;경상북도 청도군 운문면 마일리 244-1 ;;35.8324884;128.9915757;일반야영장;경상북도;청도군
100772;풍경캠핑장;2023-01-05;대구 달성군 가창면 가창동로4길 84-6;;35.783628;128.6676391;일반야영장;대구시;달성군
100773;밴프 야영장;2023-01-06;강원 양양군 서면 구룡령로 3080-70;;38.0533806;128.5706554;자동차야영장;강원도;양양군
100774;곡성 들말 야영장;2023-01-06;전남 곡성군 목사동면 평리2길 11-5;;35.122686;127.3012562;일반야영장;전라남도;곡성군
100775;그로브;2023-01-06;경기 가평군 설악면 유명로 1007-93;;37.6260016;127.48455;일반야영장;경기도;가평군
100776;소나무세상;2023-01-09;강원특별자치도 춘천시 사북면 사여골길 101;;38.0117532;127.7446047;글램핑;강원도;춘천시
100777;선흘리캠핑장;2023-01-09;제주특별자치도 제주시 조천읍 중산간동로 1063-24;;33.4975998;126.6896961;일반야영장;제주도;제주시
100778;베네치아캠핑장;2023-01-09;경기 포천시 신북면 포천로2721번길 197-87;;37.9696141;127.1758998;일반야영장;경기도;포천시
100779;정선 달별빛 캠핑장;2023-01-09;강원도 정선군 여량면 유천리 723-5 ;;37.5160612;128.7118944;일반야영장;강원도;정선군
100780;제주올레캠핑;2023-01-10;제주특별자치도 제주시 애월읍 평화로 2032-18;;33.4037073;126.3851334;일반야영장;제주도;제주시
100781;Cherokeycamp;2023-01-17;충남 태안군 남면 진산1길 277-143;;36.724381;126.2723008;일반야영장;충청남도;태안군
100782;명달 야영장;2023-01-17;경기 양평군 서종면 화서로 854-17;;37.6291745;127.4429839;일반야영장;경기도;양평군
100783;사과꽃향기;2023-01-18;경북 영주시 봉현면 소백로1411번길 26-30;;36.8310947;128.5130384;자동차야영장,글램핑;경상북도;영주시
100784;동호 국민여가캠핑장;2023-01-18;전라북도 고창군 해리면 동호리 782-4 ;;35.5135935;126.4811778;일반야영장;전라북도;고창군
100785;포천롯지카라반캠핑장;2023-01-19;경기 포천시 일동면 화동로 795-40;;37.9374342;127.304;일반야영장,카라반;경기도;포천시
100786;The Stay 309;2023-01-19;전남 여수시 돌산읍 백초길 62;;34.7304758;127.7497766;일반야영장;전라남도;여수시
100787;금동휴양림캠프1;2023-01-20;경기 포천시 신북면 탑신로1112번길 7-91;;37.9455083;127.1304994;일반야영장;경기도;포천시
100788;뉴얼리글램핑;2023-01-20;충남 천안시 동남구 목천읍 서흥1길 54;;36.8029027;127.2396589;일반야영장;충청남도;천안시
100789;구름품은 캠핑장;2023-01-20;강원 영월군 김삿갓면 솔숲길 503;;37.1448561;128.6041696;일반야영장;강원도;영월군
100790;진도 카멜리아 힐즈 오토캠핑장;2023-01-25;전남 진도군 의신면 초전길 113;;34.4472001;126.3278481;자동차야영장;전라남도;진도군
100792;새말캠핑장;2023-01-27;강원 횡성군 우천면 봉화로 281;;37.4642355;128.1019177;일반야영장;강원도;횡성군
100793;귀촌 야영장;2023-01-27;강원 횡성군 갑천면 병지방길 237;;37.6181407;128.081195;일반야영장;강원도;횡성군
100794;코알라 캠핑;2023-01-30;경기 동두천시 천보산로 565-1 (탑동동);;37.8805886;127.0949657;일반야영장;경기도;동두천시
100795;캠핑 앨리스;2022-11-01;경기 양평군 양동면 양동로 1112;;37.4732729;127.7326408;자동차야영장,카라반;경기도;양평군
100796;산정호수 마루글램핑 카라반;2023-02-02;경기 포천시 영북면 산정호수로 1012-28;;38.0892062;127.3212452;일반야영장;경기도;포천시
100797;캠프뽀미에;2023-02-06;경남 밀양시 산내면 발례로 163;;35.5687948;128.88936;자동차야영장;경상남도;밀양시
100798;캠프그룬;2023-02-03;전남 완도군 신지면 울몰길 51-5;;34.3297838;126.8337198;자동차야영장;전라남도;완도군
100799;서초바글(바베큐글램핑);2023-02-02;서울 서초구 청계산로15길 4 (신원동);;37.4431922;127.0591484;일반야영장;서울시;서초구
100800;청춘별곡;2023-02-03;경남 진주시 금산면 금산순환로587번길 113;;35.2090586;128.1535802;일반야영장;경상남도;진주시
100801;마운틴87;2023-02-03;강원 홍천군 북방면 도사곡길 260;;37.7139017;127.8222027;일반야영장;강원도;홍천군
100802;208덕동 캠핑장;2023-02-07;충북 제천시 백운면 덕동로 277;;37.204761;127.973491;일반야영장;충청북도;제천시
100803;해브솔캠핑;2023-02-09;경남 밀양시 용평로5길 163 (용평동);;35.4866735;128.7809233;자동차야영장;경상남도;밀양시
100804;달토 풀 글램핑;2023-02-09;경북 영덕군 병곡면 흰돌로 85-32;;36.6124802;129.4074708;일반야영장;경상북도;영덕군
100805;하늘향기캠프;2023-02-10;경기 포천시 일동면 사기막길 214;;37.9600689;127.3515246;일반야영장;경기도;포천시
100806;우프캠프;2023-02-10;경기 화성시 향남읍 양석골길 40-39;;37.1104571;126.9379512;일반야영장;경기도;화성시
100807;힐링인더 포레스트;2023-02-13;강원 영월군 주천면 신흥동길 212;;37.2717921;128.2256755;일반야영장;강원도;영월군
100808;홍천태극캠핑장;2023-02-14;강원 홍천군 남면 응아지길 267;;37.67772;127.7590151;일반야영장;강원도;홍천군
100809;청라캠핑파크;2023-02-16;인천 서구 첨단서로 190 (청라동);;37.5385442;126.6155454;자동차야영장;인천시;서구
100810;늘푸른캠핑장;2023-02-16;경북 청도군 운문면 운문로 1430-2;;35.6824133;128.9742792;일반야영장;경상북도;청도군
100811;신두리세븐패밀리캠핑장;2023-02-21;충남 태안군 원북면 신두해변길 244;;36.836434;126.1925789;자동차야영장;충청남도;태안군
100812;충주 목계솔밭 캠핑장;2023-02-24;충북 충주시 중앙탑면 첨단산업로 1438;;37.0744322;127.8796864;일반야영장;충청북도;충주시
100813;솔바람캠핑장;2023-02-24;경기 용인시 처인구 원삼면 보개원삼로2020번길 18;;37.1664944;127.3270135;일반야영장;경기도;용인시
100814;하버드카라반;2023-02-24;인천 옹진군 영흥면 영흥남로 297;;37.2434465;126.4517271;일반야영장;인천시;옹진군
100815;호수랑 오토캠핑장;2023-02-27;경남 의령군 지정면 함의로 1360-5;;35.3745605;128.402531;자동차야영장;경상남도;의령군
100816;트리팜 관광농원;2023-02-27;충남 공주시 이인면 새터1길 27-12;;36.3267473;127.0935136;일반야영장;충청남도;공주시
100817;캠프우아;2023-02-27;충북 단양군 영춘면 김삿갓로 138;;37.0771392;128.6053621;일반야영장;충청북도;단양군
100818;숲에서 놀자;2023-02-27;강원 홍천군 화촌면 풍천새터길 11;;37.8092195;127.9043434;일반야영장;강원도;홍천군
100819;동학농민혁명 기념공원 녹두장군 캠핑장;2023-03-09;전북 정읍시 덕천면 동학로 742;;35.6337037;126.8301179;일반야영장,자동차야영장;전라북도;정읍시
100821;해브펀 캠핑 어라운드;2018-01-02;경기 파주시 월롱면 도감로 130;;37.7915549;126.8001595;일반야영장,카라반,글램핑;경기도;파주시
100822;홍천에코밸리 캠핑장;2023-03-13;강원 홍천군 북방면 생태공원길 237-56;;37.747889;127.8554608;일반야영장;강원도;홍천군
100823;캠프봉봉;2023-03-03;경기 가평군 설악면 미사리로 666-30;;37.7098381;127.5421034;일반야영장;경기도;가평군
100824;가든스테이 순천 쉴랑게;2023-03-03;전라남도 순천시 해룡면 대안리 1054-1 ;;34.9296985;127.5095455;일반야영장,글램핑;전라남도;순천시
100825;노을빛바다 캠핑장;2023-03-23;충남 서산시 팔봉면 호리영살길 139;;36.8518642;126.3260561;일반야영장;충청남도;서산시
100826;어게인캠핑;2023-03-03;충북 충주시 산척면 인등로 584;;37.0701474;128.0199999;자동차야영장;충청북도;충주시
100827;사가록캠핑장;2023-03-07;강원 춘천시 동면 길골길 63-14;;37.8636577;127.8337842;자동차야영장,글램핑;강원도;춘천시
100828;삼매봉호텔;2023-03-07;제주특별자치도 서귀포시 태평로 152 (호근동);;33.2432954;126.5382566;일반야영장;제주도;서귀포시
100829;작가캠핑;2023-03-08;경남 남해군 창선면 서부로1305번길 106;;34.9186204;128.0129322;일반야영장;경상남도;남해군
100830;스테이NAMU;2023-03-08;강원 양양군 현남면 임호정길 110-24;;37.9195448;128.7914264;일반야영장;강원도;양양군
100831;마루지 캠프;2023-03-09;강원 평창군 봉평면 진조2길 437;;37.5652344;128.3045324;일반야영장;강원도;평창군
100832;개명연수원 캠핑장;2023-03-10;경기 양주시 장흥면 권율로309번길 317-19;;37.7483276;126.9450894;일반야영장;경기도;양주시
100833;방목리 BBQ 캠핑장;2023-03-10;경남 산청군 단성면 석대로281번길 231;;35.3248484;127.9242825;일반야영장;경상남도;산청군
100834;Base Camp;2023-03-10;강원 양양군 강현면 장재터로 337;;38.1483564;128.5723214;일반야영장,카라반;강원도;양양군
100835;지리산하이웨이 캠핑장;2023-03-13;경남 산청군 시천면 지리산대로 1346;;35.2434456;127.8031017;일반야영장;경상남도;산청군
100836;노을캠핑장;2023-03-15;경남 통영시 평인일주로 327 (인평동);;34.8485279;128.374046;일반야영장;경상남도;통영시
100837;감동스테이캠프;2023-03-15;경북 칠곡군 지천면 황학3길 7;;36.0367006;128.4865593;일반야영장;경상북도;칠곡군
100838;벨캠핑장;2023-03-15;경북 청도군 매전면 청매로 418-21;;35.5867721;128.8005027;일반야영장;경상북도;청도군
100839;단양오지캠핑장;2023-03-16;충북 단양군 영춘면 사지원2길 39;;37.1080544;128.4490245;일반야영장;충청북도;단양군
100840;메아리 캠핑장;2023-03-17;전남 광양시 다압면 대청길 40;;35.1542667;127.6515487;일반야영장;전라남도;광양시
100841;어답산 관광농원;2023-03-20;강원도 횡성군 갑천면 삼거리 227-29 ;;37.564598;128.0643113;자동차야영장;강원도;횡성군
100842;장애인문화예술판;2023-03-23;서울 성북구 동소문로20나길 47 (동선동1가);;37.5930408;127.0191608;자동차야영장;서울시;성북구
100843;TITF 카라반;2023-03-23;경북 포항시 남구 장기면 동해안로3072번길 23-17;;35.868224;129.5321547;일반야영장;경상북도;포항시
100844;진안부귀캠핑장;2023-03-23;전북 진안군 부귀면 귀상로 708-27;;35.8497539;127.4224198;일반야영장;전라북도;진안군
100845;캠프1975;2023-03-23;경기 가평군 조종면 연인산로 606;;37.8554167;127.3854556;일반야영장;경기도;가평군
100846;보니타 카라반;2023-03-24;전북 부안군 변산면 변산해변로 799-13;;35.6657035;126.5145959;일반야영장;전라북도;부안군
100847;함안군 온새미로 오토캠핑장;2023-03-27;경남 함안군 산인면 입곡공원길 291-12;;35.2617575;128.4500126;자동차야영장;경상남도;함안군
100848;풍덕 꽃가람 야영장;2023-03-27;전라남도 순천시 풍덕동 336-62 ;;34.9307316;127.503135;자동차야영장;전라남도;순천시
100849;쿠나 글램핑;2023-03-27;경기 포천시 이동면 성장로 1118-7;;38.0183869;127.359021;일반야영장;경기도;포천시
100850;캠핑 돗가비;2023-03-27;경남 밀양시 산내면 임고6길 13-19;;35.5728961;128.8713538;일반야영장;경상남도;밀양시
100851;동지화캠핑장;2023-03-27;강원 화천군 화천읍 노신로 241-45;;38.1282888;127.6977063;일반야영장;강원도;화천군
100852;효도투어;2023-03-28;서울 구로구 디지털로27길 24 (구로동);;37.4835081;126.8930021;자동차야영장;서울시;구로구
100853;O2카라반;2023-03-28;강원 삼척시 근덕면 초곡길 370;;37.309441;129.2877333;일반야영장;강원도;삼척시
100854;자작나무뜰 오토캠핑장;2023-03-29;경남 함양군 서상면 부전계곡로 257;;35.6484205;127.6704457;자동차야영장;경상남도;함양군
100855;거창 신원 양지마을 야영장;2023-03-29;경남 거창군 신원면 밤티재로 1;;35.5847386;127.958377;일반야영장;경상남도;거창군
100856;산마을글램핑;2023-03-29;경기 가평군 가평읍 태봉두밀로 530-21;;37.8138727;127.4439452;일반야영장;경기도;가평군
100857;숲속의 관광농원;2023-03-30;전라남도 장성군 삼계면 수옥리 727-19 ;;35.284768;126.6813909;일반야영장;전라남도;장성군
100858;경이궁 캠핑카라반;2023-03-30;전남 장성군 삼계면 용매골길 46;;35.2960133;126.6305853;일반야영장;전라남도;장성군
100859;천안 몽각산 힐링뷰 캠핑장;2023-03-30;충남 천안시 동남구 동면 덕성1길 147;;36.8155872;127.3609711;일반야영장;충청남도;천안시
100860;오션빌 글램핑;2023-03-31;인천 강화군 화도면 해안남로 2421-227;;37.6217822;126.3768692;일반야영장;인천시;강화군
100861;천안 트리하우스;2023-04-17;충남 천안시 동남구 광덕면 해수길 291;;36.6664784;127.024381;자동차야영장,글램핑;충청남도;천안시
100862;별빛 은하수 캠핑장;2023-04-04;경북 경주시 산내면 대현길 172;;35.7183814;129.071047;일반야영장;경상북도;경주시
100863;가곡 유황온천 국민여가캠핑장;2023-04-05;강원 삼척시 가곡면 가곡천로 1512;;37.1521016;129.207975;자동차야영장,카라반;강원도;삼척시
100864;가로림만라모스야영장;2023-04-05;충남 태안군 태안읍 안도내길 28-5;;36.8125041;126.33009;일반야영장;충청남도;태안군
100865;두송녹색농촌체험마을;2023-04-06;경북 경주시 문무대왕면 송전기곡길 15-12;;35.7656529;129.427142;일반야영장;경상북도;경주시
100866;십리포힐링카라반;2023-04-07;인천 옹진군 영흥면 영흥북로 376;;37.2810341;126.486667;일반야영장;인천시;옹진군
100867;모듬내캠핑장;2023-04-10;경상북도 고령군 대가야읍 고아리 620-12;;35.7106953;128.270097;일반야영장;경상북도;고령군
100868;다문188캠핑장;2023-04-10;경기 양평군 용문면 예술인마을1길 79;;37.4707727;127.6001017;일반야영장;경기도;양평군
100869;낭만글램핑;2023-04-19;광주 광산구 풍영철길로 106-4 (운남동);;35.1678865;126.81906;일반야영장,글램핑;광주시;광산구
100870;별이랑 달이랑 글램핑;2023-04-13;경남 밀양시 단장면 표충로 826-24;;35.5214007;128.905434;일반야영장,글램핑;경상남도;밀양시
100871;클라우드 나인;2023-04-14;경기 가평군 상면 수목원로386번길 30;;37.7471543;127.350715;자동차야영장;경기도;가평군
100872;포레스트벨리캠프;2023-04-14;경기 남양주시 수동면 철마산로 388-1;;37.716145;127.259031;자동차야영장;경기도;남양주시
100873;평택항 국민여가캠핑장;2023-11-13;경기 평택시 현덕면 서동대로 301;;36.9332113;126.8963786;자동차야영장;경기도;평택시
100874;전주 아중호수 캠핑장;2023-04-18;전북 전주시 덕진구 왜망실길 100 (우아동1가);;35.8160907;127.19217;일반야영장;전라북도;전주시
100875;금오산 힐링캠프;2023-04-19;경북 김천시 남면 우장길 442-15;;36.0991128;128.276601;일반야영장;경상북도;김천시
100876;금오산 풀타운;2023-04-19;경북 김천시 남면 우장길 442-15;;36.099672;128.276555;일반야영장;경상북도;김천시
100877;토함산 마이웨이 야영장;2023-04-20;경북 경주시 문무대왕면 불국로 1271;;35.7679711;129.368254;일반야영장;경상북도;경주시
100878;생거진천 자연휴양림;2023-04-20;충북 진천군 백곡면 명암길 435-135;;36.92396;127.389482;일반야영장;충청북도;진천군
100879;어은돌캠프캠프;2023-04-22;충남 태안군 소원면 모항파도로 398-84;;36.7493998;126.134763;일반야영장;충청남도;태안군
100880;회룡농촌체험휴양마을;2023-04-24;경남 남해군 서면 남서대로 2645;;34.8743402;127.828089;일반야영장;경상남도;남해군
100881;지리산 포레스트 카라반 파크;2023-04-24;전남 구례군 토지면 피아골로 567-12;;35.2390289;127.589235;일반야영장;전라남도;구례군
100882;캠프 어라운드;2023-04-24;강원 홍천군 서석면 피리골길 505;;37.6651559;128.243168;일반야영장;강원도;홍천군
100883;청학동별빛캠핑장;2023-04-25;경남 하동군 청암면 청학로 1688;;35.2078872;127.775317;일반야영장;경상남도;하동군
100884;초롱별 야영장;2023-04-25;경북 경주시 보불로 128-102 (하동);;35.7982728;129.320158;일반야영장;경상북도;경주시
100885;몽상핀;2023-04-25;충북 제천시 원뜰로 67-25 (하소동);;37.1366433;128.191419;일반야영장;충청북도;제천시
100886;햇살글램핑;2023-04-25;강원 인제군 남면 자작나무숲길 140-25;;38.0154805;128.145252;일반야영장;강원도;인제군
100887;숲에서 만난 바다 글램핑;2023-04-26;경기 포천시 화현면 봉화로 246;;37.8718936;127.282304;일반야영장;경기도;포천시
100888;통영해뜰캠핑농원;2023-04-26;경남 통영시 산양읍 산양중앙로 206;;34.8015338;128.406404;일반야영장;경상남도;통영시
100889;청포대솔밭야영장;2023-04-26;충남 태안군 남면 청포대길 69-10;;36.6405282;126.301775;일반야영장;충청남도;태안군
100890;템플 온더 비치;2023-04-26;강원 양양군 현남면 창리길 19-1;;37.9701526;128.759065;일반야영장,글램핑;강원도;양양군
100891;리썸글램핑;2023-04-27;충남 청양군 목면 안심길 85-64;;36.4204316;126.999075;일반야영장;충청남도;청양군
100892;잇츠 캠핑;2023-04-28;충북 제천시 덕산면 월악산로 340;;36.8974135;128.131432;자동차야영장;충청북도;제천시
100893;해월카라반앤캠핑;2023-04-28;충남 공주시 사곡면 해월길 60-60;해월카라반앤캠핑;36.5151423;127.016365;일반야영장,글램핑;충청남도;공주시
100894;포쉬카라반;2023-04-28;경기 가평군 조종면 연인산로 670-272;;37.8546307;127.40107;일반야영장;경기도;가평군
1009;마루노리;2016-02-12;강원 원주시 지정면 지정로 1234;;37.3807404;127.7921003;자동차야영장;강원도;원주시
100901;별밤캠프;2023-05-17;경북 영천시 화북면 천문로 2149-127;;36.111671;128.905593;자동차야영장;경상북도;영천시
100902;풍경소리캠핑장;2023-05-11;전북 정읍시 산내면 산호수길 208-30;;35.5333003;127.087763;일반야영장,자동차야영장;전라북도;정읍시
100903;드루왈 캠핑장;2023-06-01;강원 홍천군 내촌면 광석로 153-9;;37.8273432;128.095433;일반야영장;강원도;홍천군
100904;매향리 캠핑장;2023-05-01;경기 화성시 우정읍 고온리안길102번길 31;;37.0379638;126.746212;일반야영장;경기도;화성시
100905;리라 캠프;2023-05-01;강원 양양군 서면 남대천로 855;;38.020246;128.613344;일반야영장;강원도;양양군
100906;산마을 풍경;2023-05-01;강원 평창군 봉평면 흥정계곡4길 233-9;;37.6605247;128.308241;일반야영장;강원도;평창군
100907;리버사이드 영월;2023-05-01;강원 영월군 무릉도원면 아래골길 20-9;;37.2925618;128.276024;일반야영장;강원도;영월군
100908;휴 캠핑장(승건 관광농원);2023-05-01;경기 용인시 처인구 원삼면 보개원삼로 1361-2;;37.118321;127.305982;일반야영장;경기도;용인시
100909;다시캠핑장위드펫;2023-05-03;경상북도 고령군 덕곡면 노리 434-2 ;;35.7988881;128.195115;일반야영장;경상북도;고령군
100910;서운산캠핑장;2023-05-03;경기 안성시 서운면 월구리길 3-80;;36.9199956;127.272421;일반야영장;경기도;안성시
100912;비발디캠핑파크 미루나무점;2023-05-08;강원 홍천군 홍천읍 미루나무길 208;;37.6549718;127.865036;일반야영장;강원도;홍천군
100913;노블글램핑;2023-05-11;경기 포천시 군내면 청군로 2800;;37.8655763;127.251061;일반야영장,글램핑;경기도;포천시
100914;에스이(SE)클럽관광농원야영장;2023-05-11;충청남도 태안군 이원면 내리 503-31 ;;36.9332918;126.294057;일반야영장;충청남도;태안군
100915;선셋코스트;2023-05-12;제주특별자치도 서귀포시 대정읍 노을해안로 232;;33.2459661;126.205129;일반야영장;제주도;서귀포시
100916;(주)캠핑야미;2023-05-12;경기 용인시 처인구 남사읍 전궁로95번길 89;;37.1071194;127.144519;일반야영장;경기도;용인시
100917;포천 리버빌캠핑&카페;2023-05-15;경기 포천시 이동면 성장로 1024-116;;38.0075884;127.353803;자동차야영장,카라반,글램핑;경기도;포천시
100918;동강 산수 캠핑장;2023-05-15;강원 영월군 영월읍 둥글바위길 10;;37.201069;128.506247;일반야영장;강원도;영월군
100919;우니메이카 정선;2023-05-16;강원 정선군 남면 광락로 74-27;;37.3231524;128.707724;일반야영장;강원도;정선군
100920;평창 국민여가캠핑장;2023-05-16;강원 평창군 방림면 뇌운계곡로 829;;37.4275606;128.38587;일반야영장;강원도;평창군
100921;제천 클라우드글램핑;2023-05-18;충북 제천시 봉양읍 옥전길 303-1;;37.1814969;128.080192;일반야영장;충청북도;제천시
100922;제천 참!좋은 글램핑;2023-05-18;충북 제천시 봉양읍 옥전길 303;;37.1814532;128.081036;일반야영장;충청북도;제천시
100923;푸르미르 관광농원;2023-05-19;충남 당진시 대호지면 4.4만세로 391-67;;36.8854153;126.536504;일반야영장;충청남도;당진시
100924;꿈꾸는 강 펜션 & 카라반;2023-05-19;강원 영월군 영월읍 동강로 1515;;37.2729363;128.528906;일반야영장;강원도;영월군
100925;백덕산 캠핑장;2023-05-19;강원 영월군 주천면 중선로 569-4;;37.340005;128.308387;일반야영장;강원도;영월군
100926;꼬꼬토피아 캠핑;2023-05-19;강원 영월군 주천면 황산벌길 186;;37.2195171;128.277926;일반야영장;강원도;영월군
100927;별보는 마을;2023-05-22;강원 원주시 귀래면 고청길 9;;37.2241423;127.863467;자동차야영장;강원도;원주시
100928;더멍스테이;2023-05-23;경남 의령군 의령읍 수암로 278-152;;35.3150729;128.218464;자동차야영장;경상남도;의령군
100929;레인보우;2023-05-23;경기 포천시 신북면 청신로1059번길 115;;37.9639612;127.140283;일반야영장,카라반;경기도;포천시
100930;꿈드림 글램핑;2023-06-23;경기 포천시 화현면 봉화로 447;;37.8879128;127.278306;일반야영장;경기도;포천시
100931;서해랑83;2023-05-24;충남 당진시 신평면 매산로 92-135;;36.9125604;126.813747;일반야영장;충청남도;당진시
100932;코끼리마을;2023-05-24;강원 평창군 미탄면 평창동강로 416-55;;37.3068414;128.530809;일반야영장;강원도;평창군
100933;원대리751 글램핑;2023-05-24;강원 인제군 인제읍 자작나무숲길 870-3;;38.0066351;128.206461;일반야영장,글램핑;강원도;인제군
100934;포레스트;2023-05-24;경기 가평군 가평읍 가화로 440-147;;37.8538186;127.508954;일반야영장;경기도;가평군
100935;글램포레스트 글램핑;2023-05-25;인천 옹진군 영흥면 영흥로525번길 63-116;;37.2567873;126.45058;일반야영장;인천시;옹진군
100936;곽지몬스터캠핑;2023-05-25;제주특별자치도 제주시 애월읍 일주서로 6083-3;곽지몬스터캠핑;33.4547608;126.308072;일반야영장,자동차야영장,카라반;제주도;제주시
100937;다올 오토캠핑장;2023-05-26;경기 양평군 양동면 원양1로 155;;37.3851964;127.743982;자동차야영장;경기도;양평군
100938;아람말 야영장;2023-05-30;경기도 양평군 개군면 자연리 83-19 ;;37.4331091;127.565011;일반야영장;경기도;양평군
100939;가평 밤나무숲캠핑장;2018-02-12;경기 가평군 북면 화악산로 686-57;;37.9380392;127.56219;일반야영장,자동차야영장,카라반;경기도;가평군
100940;하크베리빌 글램핑 리조트;2023-06-02;경남 사천시 석양길 160 (노룡동);;34.9841963;128.044775;글램핑;경상남도;사천시
100941;양양 별밤캠핑장;2023-06-02;강원특별자치도 양양군 현북면 부연동길 1893;;37.9426583;128.663712;일반야영장;강원도;양양군
100942;서천 오션플레이스;2023-06-13;충남 서천군 마서면 원한성길104번길 23-20;;36.0812193;126.634098;카라반,글램핑;충청남도;서천군
100943;언덕캠핑장;2023-06-05;경남 고성군 구만면 구만로 1082;;35.1004199;128.362965;자동차야영장;경상남도;고성군
100944;코코숲 바베큐&글램핑;2023-06-28;경기 포천시 내촌면 매봉길 61-1;;37.760742;127.2313421;일반야영장,글램핑;경기도;포천시
100945;한알캠핑장;2023-06-13;경기 가평군 설악면 어비산길 211;;37.5919079;127.5114138;일반야영장;경기도;가평군
100946;거제GO캠핑;;경남 거제시 일운면 거제대로 2253;;34.8163764;128.7019496;일반야영장;경상남도;거제시
100947;알로프랑스;2023-06-09;전북 무주군 무풍면 구천동로 559-12;;35.9016555;127.8113717;카라반;전라북도;무주군
100948;JH웨스턴 글램핑;2023-06-13;경기 가평군 가평읍 북한강변로 326-430;;37.7579539;127.5407866;글램핑;경기도;가평군
100949;오가네캠핑;2023-06-12;충북 제천시 하소천길 292-8 (신월동);;37.1609691;128.1973707;자동차야영장;충청북도;제천시
100950;오즈캠핑;2023-06-27;충남 보령시 오천면 원산도2길 95;;36.3741155;126.4174411;일반야영장,글램핑;충청남도;보령시
100951;해미 모꼬지 캠핑장;2023-06-22;충남 서산시 해미면 관터로 458;;36.7512598;126.5498383;일반야영장;충청남도;서산시
100952;파파스 캠핑장;2023-06-27;충남 천안시 동남구 북면 대평1길 292-1;;36.8734041;127.2975208;일반야영장,자동차야영장;충청남도;천안시
100953;성수산 왕의숲 국민여가캠핑장;2023-06-01;전북 임실군 성수면 성수산길 374;;35.6376897;127.4078863;일반야영장,카라반,글램핑;전라북도;임실군
100954;담양오랑쥬마을;2023-06-01;전남 담양군 담양읍 메타세쿼이아로 146;;35.3296866;127.0173997;일반야영장;전라남도;담양군
100955;블포 풀글램핑;2023-06-01;강원특별자치도 홍천군 서면 한서로 1590;;37.6463144;127.643161;일반야영장;강원도;홍천군
100956;글램포레스트 대부도;2023-06-01;경기 안산시 단원구 선감로 14 (선감동);;37.233557;126.6260608;일반야영장;경기도;안산시
100957;경주쿠키오토캠핑장;2023-06-02;경북 경주시 양남면 석읍길 17;;35.7290229;129.4138679;일반야영장,자동차야영장;경상북도;경주시
100958;숙호야영장;2023-06-05;경남 남해군 남면 남면로 219-25;;34.7552059;127.9050794;일반야영장;경상남도;남해군
100959;드르니캠핑장;2023-06-05;강원특별자치도 철원군 갈말읍 지포2길 71;;38.1367016;127.2939704;일반야영장;강원도;철원군
100960;광이멀스테이 풀빌라 글램핑;2023-06-08;제주특별자치도 제주시 한림읍 월각로 151-2;;33.4058384;126.3056599;일반야영장;제주도;제주시
100961;산외 글램핑;2023-06-08;충북 보은군 산외면 속리산로 1718-22;;36.5722008;127.7698861;일반야영장;충청북도;보은군
100962;인터뷰카페;2023-06-08;대전 서구 장안로 454 (장안동);;36.221762;127.3390233;일반야영장;대전시;서구
100963;솔밭캠핑장;2023-06-09;전북 완주군 운주면 운주로 243-68;;36.0976057;127.2641852;일반야영장;전라북도;완주군
100964;캠프마징가;2023-06-12;경북 청도군 청도읍 청매로 283-20;;35.5764507;128.7931208;일반야영장;경상북도;청도군
100965;청우재 캠핑장;2023-06-12;강원특별자치도 영월군 무릉도원면 백년계곡길 133;;37.3763565;128.2712728;일반야영장;강원도;영월군
100966;하이스토리 캠핑장;2023-06-14;경북 경주시 양남면 갈골마을길 41-1;;35.702314;129.4185342;자동차야영장;경상북도;경주시
100967;이스턴모스트카라반;2023-06-14;경북 포항시 남구 구룡포읍 땅끝마을길 47;;36.0169429;129.5809176;자동차야영장;경상북도;포항시
100968;금오산 관광농원;2023-06-14;경남 하동군 진교면 구고속도로 374-30;;35.0160365;127.8613047;일반야영장;경상남도;하동군
100969;플라움;2023-06-15;경남 김해시 한림면 김해대로1499번길 25-19;;35.2801597;128.8383144;자동차야영장;경상남도;김해시
100970;다온 오토캠핑장;2023-06-15;전남 해남군 화원면 화봉길 192-10;;34.6647893;126.2664896;일반야영장,자동차야영장;전라남도;해남군
100971;D. private Gapyeong;2023-06-15;경기 가평군 북면 논남기길 466-35;;37.9680289;127.4165944;일반야영장;경기도;가평군
100972;까사스위스 캠핑장;2023-06-19;경기 가평군 설악면 다락재로 231-14;;37.6655057;127.4518123;일반야영장;경기도;가평군
100973;유명산 계곡 캠핑장;2023-06-19;경기 가평군 설악면 어비산길 201-41;;37.5918631;127.5137288;일반야영장;경기도;가평군
100974;땅끝고구마글램핑;2023-06-20;전남 해남군 화산면 평호길 296;;34.4426912;126.475008;일반야영장;전라남도;해남군
100975;솔비알 캠핑장;2023-06-20;강원특별자치도 평창군 봉평면 진조2길 281;;37.5561405;128.3168811;일반야영장;강원도;평창군
100976;파주 천지연캠핑장;2023-06-20;경기 파주시 파평면 파평산로 485-155;천지연캠핑장;37.9035816;126.826736;일반야영장;경기도;파주시
100977;사천 씨씨캠핑&카라반;2023-06-21;경남 사천시 서포면 자구로 60;;35.0017058;128.0143163;일반야영장,카라반;경상남도;사천시
100978;마니또 오토캠핑장;2023-06-22;인천 강화군 길상면 장흥로 76-30;;37.613595;126.5166116;자동차야영장;인천시;강화군
100979;야크마을 제주;2023-06-22;제주특별자치도 서귀포시 색달중앙로 162 (색달동);;33.2694822;126.4169176;일반야영장;제주도;서귀포시
100980;오로라 캠핑장;2023-06-22;충북 보은군 내북면 성암길 59-28;;36.57551;127.6730254;일반야영장;충청북도;보은군
100981;러빙포카라반;2023-06-26;경남 통영시 사량면 내지길 22-23;;34.8546445;128.1815961;자동차야영장;경상남도;통영시
100982;팔공마루오토캠핑앤캠프닉;2023-06-26;대구 군위군 부계면 원효길 30;;36.0488597;128.6565965;일반야영장;경상북도;군위군
100983;충주호더쉼캠핑장;2023-06-26;충북 충주시 동량면 미라실로 730;;37.0067656;128.0515245;일반야영장;충청북도;충주시
100984;힐링브릿지캠프;2023-06-27;강원특별자치도 춘천시 남면 박암관천길 511-24;;37.7230596;127.5363981;자동차야영장;강원도;춘천시
100985;위고고 남해점;2023-06-29;경남 남해군 이동면 남해대로 1645;;34.7721472;127.9551627;일반야영장,카라반;경상남도;남해군
100986;비봉공룡바다캠핑장;2023-06-29;전남 보성군 득량면 공룡로 822-51;;34.7074834;127.1963573;일반야영장;전라남도;보성군
100987;가평 쉼 캠핑장;2023-06-29;경기 가평군 북면 화악산로 686-23;;37.9376239;127.5592656;일반야영장,자동차야영장;경기도;가평군
100989;개네집캠핑장;2023-07-05;경기 양주시 장흥면 권율로 156-116;;37.7288319;126.9531195;일반야영장;경기도;양주시
100990;STX오토캠핑장;2023-07-11;경북 문경시 농암면 청화로 509;;36.568123;127.9639407;자동차야영장;경상북도;문경시
100991;하우스 캠핑장;2023-07-07;강원특별자치도 영월군 무릉도원면 무릉법흥로 968-23;;37.3444892;128.2807503;일반야영장;강원도;영월군
100992;동의보감 캠핑장;2023-07-02;경남 산청군 금서면 동의보감로150번길 143-14;;35.436876;127.8422725;일반야영장;경상남도;산청군
100993;미리내캠핑장;2023-07-11;경북 상주시 모서면 백화로 780;;36.3341531;127.9014806;일반야영장,글램핑;경상북도;상주시
100994;왕모래 카라반 캠핑장;2023-07-20;경기 안산시 단원구 대부북동 1688-90;;37.2649684;126.5598075;일반야영장,카라반;경기도;안산시
100995;개울가에캠핑관광농원;2023-06-08;경기 포천시 신북면 청신로1196번길 112;;37.9479305;127.1541668;일반야영장,글램핑;경기도;포천시
100996;이밤에캠핑장;2023-07-12;전북 정읍시 입암면 구마석길 79-20;;35.5387315;126.8077215;자동차야영장;전라북도;정읍시
100997;가리왕산 정원 캠핑장;2023-07-06;강원특별자치도 정선군 북평면 오대천로 570-19;;37.4704315;128.6215362;일반야영장,자동차야영장;강원도;정선군
100998;천왕봉캠핑장;2023-07-12;경남 산청군 시천면 구미길 5;;35.2441597;127.7893149;일반야영장;경상남도;산청군
100999;달빛 계곡 캠핑장;2023-07-14;전남 장흥군 유치면 봉덕신덕길 371;;34.8300302;126.8667308;자동차야영장;전라남도;장흥군
101000;디캠 고흥;2023-07-18;전남 고흥군 점암면 여도진로 670;;34.661632;127.4242171;자동차야영장;전라남도;고흥군
101001;에이스캠프;2023-07-12;경북 청도군 각북면 낙산1길 159;;35.6838315;128.5654393;일반야영장,카라반;경상북도;청도군
101002;행운캠핑장;2022-05-17;강원특별자치도 춘천시 동산면 윗성골길 6;;37.7574788;127.8432822;일반야영장;강원도;춘천시
101003;캠프정감;2023-07-24;충남 아산시 송악면 외암로 176;;36.6673666;126.9901457;일반야영장;충청남도;아산시
101004;장수 자연관광농원;2015-12-29;경기 용인시 처인구 원삼면 보개원삼로1462번길 14-22;;37.1245426;127.3130942;일반야영장;경기도;용인시
101005;플랜 시그니처;2023-07-25;경북 포항시 남구 구룡포읍 일출로 242-84;;36.014296;129.5801063;일반야영장,카라반;경상북도;포항시
101006;600마지기 가는길 야영장;2023-06-30;강원특별자치도 평창군 미탄면 청옥산길 243;;37.3613156;128.4903624;일반야영장;강원도;평창군
101008;파도와노을캠핑장;2023-07-03;충남 태안군 소원면 아치내길 60-70;;36.7335154;126.1309267;자동차야영장;충청남도;태안군
101009;버드오토캠핑장;2023-07-05;전북 군산시 강변로 3 (금암동);;35.986733;126.724831;자동차야영장;전라북도;군산시
101010;힐포레 글램핑장;2023-07-05;경북 칠곡군 왜관읍 봉계3길 13;;36.0054494;128.4559729;일반야영장;경상북도;칠곡군
101011;하이스트 글램핑장;2023-07-05;경북 칠곡군 왜관읍 봉계3길 11;;36.0051571;128.4560067;일반야영장;경상북도;칠곡군
101012;스페이스 영덕;2023-07-05;경북 영덕군 영덕읍 영덕대게로 587;;36.3940776;129.4148096;일반야영장;경상북도;영덕군
101013;서산클럽아일랜드;2023-07-05;충청남도 서산시 운산면 용장리 81-1 ;;36.7922112;126.5888167;일반야영장;충청남도;서산시
101014;워크 안산 BBQ;2023-07-05;경기 안산시 상록구 수인로 919 (건건동);;37.2976689;126.9073211;일반야영장;경기도;안산시
101015;상리면어울림문화센터야영장;2023-07-06;경남 고성군 상리면 척번정7길 64;;35.0001347;128.1877567;자동차야영장;경상남도;고성군
101016;가은달빛캠핑장;2023-07-06;경북 문경시 가은읍 옥천길 47;;36.6544719;128.0468929;일반야영장;경상북도;문경시
101017;outside;2023-07-07;경기 파주시 법원읍 자운서원로 110;;37.8585034;126.8725673;일반야영장;경기도;파주시
101018;(주)스노우라인캠핑빌리지;2023-07-10;충남 예산군 예산읍 간양길 242-9;;36.7247607;126.8769929;일반야영장;충청남도;예산군
101020;에코이글루;2023-07-12;경기 양평군 청운면 삼백골길 28;;37.5520281;127.7903051;일반야영장;경기도;양평군
101021;도마치 자연그대로 캠핑장;2023-07-14;경기 포천시 이동면 화동로 2318-34;;38.0516112;127.3905922;일반야영장;경기도;포천시
101022;완주달빛카라반;2023-07-14;전북 완주군 동상면 밤티길 38-21;;35.8764187;127.3149241;일반야영장;전라북도;완주군
101023;봉바위돌집 캠핑장;2023-07-14;강원특별자치도 원주시 호저면 칠봉로 758;;37.4524911;127.8918446;일반야영장;강원도;원주시
101024;해이든 지앤에스;2023-07-14;인천 강화군 내가면 고비고개로 663;;37.7260868;126.4184451;일반야영장;인천시;강화군
101025;보은국민여가캠핑장;2023-07-17;충북 보은군 보은읍 속리산로 30;;36.48962;127.7557935;자동차야영장;충청북도;보은군
101026;돌궁캠핑장;2023-07-18;경기 가평군 설악면 어비산길 53;;37.5980162;127.4977299;일반야영장;경기도;가평군
101027;돌머리 해변 글램핑 야영장;2023-07-19;전남 함평군 함평읍 주포로 624;;35.0857752;126.4407403;일반야영장;전라남도;함평군
101028;아름다운 신수도;2023-07-21;경남 사천시 대구길 60 (신수동);;34.8939456;128.0747677;일반야영장;경상남도;사천시
101029;캠프그라운드 화온;2023-07-21;충남 아산시 영인면 고룡산로 512-37;;36.8844225;126.9820089;일반야영장;충청남도;아산시
101030;가자우리집;2023-07-21;충북 괴산군 칠성면 쌍곡로 503;;36.7454056;127.9012172;일반야영장;충청북도;괴산군
101031;(주)소풍앤리조트;2023-07-21;강원특별자치도 춘천시 동산면 윗성골길 38-1;;37.7589184;127.8460249;일반야영장;강원도;춘천시
101032;주식회사 더블루밍;2023-07-25;경기 수원시 팔달구 효원로 303 (인계동);;37.2613186;127.0351481;자동차야영장;경기도;수원시
101033;더히로글램핑;2023-07-25;경기 포천시 화현면 봉화로 201-89;;37.8658797;127.2764931;일반야영장;경기도;포천시
101035;인제 스테이 밸리 캠핑;2023-07-25;강원특별자치도 인제군 남면 부평정자로 608;;37.9646343;128.1309056;일반야영장;강원도;인제군
101036;(주)너의아지트가되어줄게;2023-07-25;경기 가평군 설악면 묵안로 746-20;;37.6170972;127.5184552;일반야영장;경기도;가평군
101037;파이브이모션관광농원;2023-07-25;경기 용인시 처인구 백암면 고안로181번길 14-29;;37.1273582;127.4195315;일반야영장;경기도;용인시
101038;초이스캠프;2023-07-26;경기 포천시 화현면 화동로499번길 58;;37.9128452;127.3046847;일반야영장,카라반;경기도;포천시
101039;경산 모골캠핑장;2023-07-26;경북 경산시 남천면 모골길 221-13;;35.7721165;128.7134537;일반야영장;경상북도;경산시
101040;캥거루랜드;2023-07-26;충남 공주시 반포면 원전말길 57-38;;36.384494;127.262387;일반야영장;충청남도;공주시
101041;반암캠핑장;2023-07-26;강원특별자치도 고성군 거진읍 자산천로 102-16;;38.4242837;128.4610399;일반야영장;강원도;고성군
101042;봉수대 야영장;2023-07-26;강원특별자치도 고성군 죽왕면 오호리 68-10 ;;38.3242153;128.5268892;일반야영장;강원도;고성군
101043;용암산성오토캠핑장;2023-07-26;대구광역시 동구 도동 712;;35.918848;128.676743;일반야영장;대구시;동구
101044;형제섬캠프타운;2023-07-27;전남 고흥군 동일면 우주로 2468-12;;34.5104408;127.4570399;일반야영장,자동차야영장;전라남도;고흥군
101045;춘천 신촌 캠프장;2023-07-27;강원특별자치도 춘천시 동내면 순환대로 808-42;;37.8520329;127.7791226;글램핑;강원도;춘천시
101046;밀양밸리캠핑장;2023-07-28;경남 밀양시 단장면 표충로 1077;;35.5248575;128.9313334;일반야영장;경상남도;밀양시
101047;이루다글램핑;2023-07-28;강원특별자치도 철원군 근남면 하오재로 1203-16;;38.1715472;127.4600097;일반야영장;강원도;철원군
101048;라하 글램핑;2023-07-28;강원특별자치도 원주시 소초면 상초구길 35-17;;37.3807591;128.0069232;일반야영장;강원도;원주시
101049;농업회사법인 시즌온 주식회사;2023-07-28;경기 파주시 적성면 윗배우니길 441-127;;37.9620611;126.9626724;일반야영장;경기도;파주시
101050;우니메이카 포천점;2023-07-31;경기 포천시 창수면 포천로2811번길 148;;37.9939584;127.1600998;자동차야영장;경기도;포천시
101051;474오토캠핑장;2023-07-31;충북 옥천군 이원면 의평길 74-47;;36.2109716;127.6192622;자동차야영장;충청북도;옥천군
101052;카라반스;2023-07-28;경북 경주시 동방안1길 47 (동방동);;35.8058887;129.2661835;일반야영장,카라반;경상북도;경주시
101053;바나나 캠핑장;2023-07-31;강원특별자치도 홍천군 내면 을수길 183;;37.8153402;128.4629017;일반야영장;강원도;홍천군
101054;대강오토캠핑장;2015-03-24;충북 단양군 대강면 사인암로 683-77;;36.9192982;128.3551343;자동차야영장;충청북도;단양군
101055;양주잼잼 글램핑&카라반;2023-08-03;경기 양주시 장흥면 권율로 60;;37.7204202;126.9457605;일반야영장;경기도;양주시
101056;오대천 휴 캠핑클럽;2023-08-10;강원특별자치도 평창군 진부면 오대천로 553;;37.5333219;128.5666742;일반야영장;강원도;평창군
101057;우니메이카 장흥점;2023-08-14;전남 장흥군 회진면 회진로 732-10;;34.4739184;126.963439;자동차야영장;전라남도;장흥군
101058;양양한스오토캠핑장;2023-08-10;강원특별자치도 양양군 강현면 용호길 11;;38.1294784;128.6201176;자동차야영장,글램핑;강원도;양양군
101059;별빛사이;2023-08-08;강원특별자치도 평창군 용평면 금당계곡로 2195;;37.5771918;128.4038228;일반야영장;강원도;평창군
101060;민트초코캠핑장	;2023-05-15;강원특별자치도 양구군 양구읍 석현리 49;;38.0489863;127.972804;일반야영장;강원도;양구군
101061;쉼표 글램핑&캠핑;2023-08-10;경남 거제시 하청면 석포3길 1;;34.9573342;128.6032373;자동차야영장;경상남도;거제시
101062;우니메이카 문경점;2023-07-17;경북 문경시 산양면 덕암길 6;숲속야영장(우니메이카 문경점);36.6009392;128.2561852;일반야영장;경상북도;문경시
101063;캠프 노마드;2023-08-25;인천 옹진군 영흥면 영흥로757번길 280;;37.2633423;126.4497582;일반야영장,카라반;인천시;옹진군
101065;팜스프링 야영장;2023-08-09;강원특별자치도 횡성군 우천면 전재호수길 168;;37.4255903;128.1141013;일반야영장;강원도;횡성군
101066;하늘하루자연관광농원;2023-08-02;경남 밀양시 단장면 고례4안길 30;하늘하루펜션;35.4976845;128.9320507;일반야영장;경상남도;밀양시
101067;월악아지트캠핑장;2023-08-25;충북 제천시 덕산면 월악산로 178;;36.9061982;128.1184176;자동차야영장;충청북도;제천시
101068;더좋은날n캠핑;2023-12-21;강원특별자치도 영월군 무릉도원면 도원운학로 1624-6;;37.3410282;128.1959014;일반야영장,자동차야영장;강원도;영월군
101069;운양캠프;2023-08-14;경기 김포시 김포한강11로255번길 107 (운양동);;37.6600269;126.6787751;글램핑;경기도;김포시
101070;문장대 사계절캠핑장;2023-08-01;경북 상주시 화남면 문장로 1011;;36.5012508;127.9238643;일반야영장;경상북도;상주시
101071;숲속에햇살캠핑장;2023-08-01;경기 가평군 상면 아랫벌길 26-316;;37.7912891;127.3340639;일반야영장;경기도;가평군
101072;가자 GO캠핑 야영장;2023-08-03;강원특별자치도 원주시 신림면 신림황둔로 806;;37.2489014;128.1518076;일반야영장;강원도;원주시
101074;키즈락 캠핑장;2023-08-04;강원특별자치도 원주시 신림면 송계리 320-4 ;;37.2913986;128.200246;일반야영장;강원도;원주시
101075;프라이빗캠핑장;2023-08-07;충청남도 태안군 원북면 방갈리 515-31 ;;36.8984529;126.211951;일반야영장;충청남도;태안군
101076;낙화담캠핑장;2023-08-08;경북 칠곡군 지천면 지천로 395-70;;35.9720178;128.4852755;자동차야영장;경상북도;칠곡군
101077;대율저수지 오토캠핑장;2023-08-08;전라북도 김제시 금구면 대화리 357-8 ;;35.7894513;127.037422;자동차야영장;전라북도;김제시
101078;청솔글램핑장;2023-08-09;경북 고령군 덕곡면 백리로 40-18;;35.7951045;128.216374;일반야영장;경상북도;고령군
101079;The 글래드 글램핑;2023-08-10;경남 합천군 대병면 신성동길 50-58;합천 더글래드 글램핑장;35.5226165;128.008217;글램핑;경상남도;합천군
101080;봄빛 글램핑 앤 바비큐;2023-08-11;전북 김제시 금구면 대율2길 41;;35.788696;127.0331502;일반야영장;전라북도;김제시
101081;느티포레 캠핑바베큐장;2023-08-14;경기 양주시 평화로1257번길 57 (산북동);;37.8038074;127.0425044;글램핑;경기도;양주시
101082;와따캠핑장;2023-08-17;경남 사천시 서포면 다평로 370-101;;34.9942512;127.966808;일반야영장;경상남도;사천시
101083;문스 글램핑;2023-08-17;대전 동구 산내로 243 (하소동);;36.2086218;127.4399213;일반야영장;대전시;동구
101084;청포대오토캠핑장;2023-08-18;충청남도 태안군 남면 원청리 512-21 ;;36.6365424;126.301285;일반야영장;충청남도;태안군
101085;캠프공존;2023-08-22;경북 영천시 금호읍 가라골1길 90;;35.9209623;128.8610101;일반야영장,글램핑;경상북도;영천시
101086;덕동리301캠핑장;2023-09-11;충북 제천시 백운면 덕동로2길 63;;37.2198938;127.9556303;일반야영장;충청북도;제천시
101087;월든캠프;2023-08-23;강원특별자치도 양양군 현남면 갓바위1길 154;;37.9360329;128.7844806;일반야영장;강원도;양양군
101088;금동휴양림캠프3;2023-08-24;경기 포천시 신북면 탑신로1112번길 7-105;;37.9441168;127.1304054;일반야영장;경기도;포천시
101089;시선글램핑;2023-08-30;경남 남해군 삼동면 동부대로 983-8;;34.7885397;128.0496298;자동차야영장;경상남도;남해군
101090;낭만야영장;2023-08-30;경기 양평군 서종면 배치골길 99;;37.6552473;127.4301733;일반야영장;경기도;양평군
101091;금천계곡 야영장;2023-08-31;전남 광양시 다압면 대청길 15;;35.1569293;127.652178;자동차야영장;전라남도;광양시
101092;인더밸리;2023-08-31;충북 제천시 봉양읍 명암로 740;;37.1945884;128.1608406;일반야영장;충청북도;제천시
101093;신림스테이캠프;2023-01-25;강원특별자치도 원주시 신림면 신림황둔로 604;;37.2502467;128.1297347;일반야영장;강원도;원주시
101094;별애드림 캠핑장;2023-09-05;충북 영동군 심천면 난계로 712-42;;36.1999273;127.7386744;카라반;충청북도;영동군
101095;오오유맨손캠핑;2023-09-01;경남 고성군 마암면 당항만로 389;;35.0337609;128.374197;일반야영장;경상남도;고성군
101096;가평뷰캠핑장;2023-09-04;경기 가평군 북면 화악산로 270;;37.9050084;127.5603348;일반야영장,자동차야영장;경기도;가평군
101097;홍천불멍멍글램핑캠핑장;2015-06-05;강원특별자치도 홍천군 화촌면 군들길 20;;37.7479794;128.0350186;일반야영장;강원도;홍천군
101098;좋은하루캠핑장;2023-08-13;전북 완주군 운주면 금고당로 367-80;;36.066753;127.3190091;일반야영장,자동차야영장;전라북도;완주군
101099;아름드리 캠핑장;2023-09-11;경북 경주시 외동읍 방어북토길 178;;35.7445467;129.2802864;일반야영장;경상북도;경주시
1011;마루펜션 캠핑장;2015-08-03;강원 영월군 주천면 평창강로 221;;37.2987559;128.344633;자동차야영장;강원도;영월군
101100;힐링 글램핑;2023-11-15;경북 칠곡군 동명면 기성5길 27;;36.0002465;128.5955528;글램핑;경상북도;칠곡군
101101;북한산 사기막야영장;2023-09-15;경기 고양시 덕양구 북한산로618번길 130 (효자동);;37.6762165;126.9646347;일반야영장;경기도;고양시
101102;글램핑 봄;2023-09-20;경기 평택시 팽성읍 계양로 561;;36.9413172;126.9915467;글램핑;경기도;평택시
101103;벌곡 산속 캠핑장;2023-09-15;충남 논산시 벌곡면 만어1길 105;;36.1850495;127.3118837;일반야영장;충청남도;논산시
101104;워크안산 피크닉;2023-09-02;경기 안산시 상록구 수인로 923 (건건동);;37.2985037;126.9067495;일반야영장;경기도;안산시
101105;옥화 포시즌캠핑장;2023-09-04;충북 청주시 상당구 미원면 운암계원로 819;;36.6112807;127.7423345;일반야영장;충청북도;청주시
101106;임진강 캠핑장;2023-09-04;경기 연천군 미산면 청정로 1764-14;;38.0534961;127.0152797;일반야영장;경기도;연천군
101107;원주 우리 캠핑장;2023-09-05;강원특별자치도 원주시 신림면 신림황둔로 972;;37.2486796;128.1675391;일반야영장;강원도;원주시
101108;도담2캠핑장;2023-09-06;충남 태안군 남면 진산1길 277-104;;36.7202954;126.2752562;일반야영장;충청남도;태안군
101109;달산포진주캠핑장;2023-09-11;충남 태안군 남면 달산포로 121-32;;36.6540259;126.2973171;일반야영장;충청남도;태안군
101110;푸르른 캠핑장;2023-09-11;경기 양평군 단월면 향소서정길 13;;37.5647187;127.6549613;일반야영장;경기도;양평군
101111;포천아르테미스 글램핑;2023-09-12;경기 포천시 영중면 호국로 3226-37;;38.0272702;127.262511;일반야영장,글램핑;경기도;포천시
101112;굿모닝오소재글램핑;2023-09-12;전남 해남군 북일면 오소재로 174-22;;34.4723121;126.6607552;일반야영장,글램핑;전라남도;해남군
101113;수룡캠핑장;2023-09-12;전북 완주군 운주면 금고당로 914;;36.0372997;127.3423037;일반야영장;전라북도;완주군
101114;고기하이캠핑장;2023-09-13;경기 이천시 백사면 청백리로 217;;37.3088885;127.4837977;일반야영장;경기도;이천시
101115;자호천생태학교;2023-09-14;경북 영천시 자양면 신방로 626;;36.0665764;129.0735873;일반야영장;경상북도;영천시
101116;팔현 캠핑1;2023-09-14;경기 남양주시 오남읍 팔현로175번길 284-1;;37.6999559;127.2598853;일반야영장;경기도;남양주시
101117;양명힐링캠프;2023-09-15;경기 양주시 남면 삼육사로327번길 425;;37.9225286;126.9855422;일반야영장;경기도;양주시
101118;라만차의 돈키호테 캠핑장;2023-09-15;강원특별자치도 정선군 화암면 그림바위길 1-23;;37.3454591;128.7891948;일반야영장;강원도;정선군
101119;(주)산들링크;2023-09-15;강원특별자치도 영월군 북면 막골길 131;;37.2957533;128.4774093;일반야영장;강원도;영월군
101120;집 밖으로;2023-09-15;경기 양평군 단월면 석산로 832;;37.5995199;127.6060217;일반야영장;경기도;양평군
101121;베르아델 승마클럽;2023-09-15;경기 안산시 단원구 부흥로 376 (대부남동);;37.2131933;126.6081985;일반야영장;경기도;안산시
101122;캠핑클라쓰;2023-09-19;충북 옥천군 청성면 묘금3길 11;;36.276653;127.73234;자동차야영장;충청북도;옥천군
101123;태안머드오토캠핑;2023-09-19;충남 태안군 남면 진산1길 277-111;;36.7219443;126.2736136;일반야영장;충청남도;태안군
101124;뚜띠아모 캠핑장;2023-09-20;전남 고흥군 동일면 성두구룡길 88;;34.5246163;127.4411212;일반야영장;전라남도;고흥군
101125;청풍레이크 카라반;2023-09-20;충북 제천시 수산면 옥순봉로 967;;36.9748222;128.2102598;카라반;충청북도;제천시
101126;만월글램핑;2023-09-20;경기 가평군 상면 깃대봉길 17-27;;37.7549432;127.4010875;글램핑;경기도;가평군
101127;진천명품휴미락캠핑장;2023-09-22;충북 진천군 백곡면 용암2길 108-36;;36.8744595;127.3667318;자동차야영장;충청북도;진천군
101128;이비가에프앤비야영장(A);2023-09-21;충청남도 태안군 소원면 파도리 산 202-1 ;;36.7416289;126.135522;일반야영장;충청남도;태안군
101130;덕두글램핑;2023-09-21;강원특별자치도 춘천시 서면 박사로 257-12;;37.8489507;127.6697009;글램핑;강원도;춘천시
101131;또와또 오토캠핑장;2023-09-25;강원특별자치도 화천군 상서면 만산동로 930;;38.1395281;127.6165096;일반야영장;강원도;화천군
101132;무지개카라반;2023-10-26;경남 사천시 석양길 196 (대포동);;34.9871545;128.0444627;카라반;경상남도;사천시
101133;캠핑7604;2023-09-27;경기 연천군 신서면 윗대광길 49-7;;38.1977884;127.1246676;자동차야영장;경기도;연천군
101134;글래머스글램핑;2023-09-27;경기 포천시 일동면 화동로 1544-123;;37.9897026;127.354165;글램핑;경기도;포천시
101135;두리랜드 공룡카라반파크;2023-09-27;경기 양주시 장흥면 권율로 120-1;;37.7248187;126.9516084;일반야영장;경기도;양주시
101136;동학사힐링캠핑장;2023-09-27;충남 공주시 반포면 사봉길 71-31;;36.3678084;127.2626171;일반야영장;충청남도;공주시
101137;갯골자연휴양림 야영장;2023-09-27;강원특별자치도 인제군 인제읍 남북리 709 ;;38.0822505;128.125936;일반야영장;강원도;인제군
101138;태기산 야영장;2023-09-27;강원특별자치도 횡성군 청일면 청일로 607;;37.5815087;128.1934123;일반야영장;강원도;횡성군
101139;월강캠프;2023-09-22;강원특별자치도 횡성군 강림면 월강길 100;;37.3552714;128.1522911;일반야영장;강원도;횡성군
101140;별숲글램핑;2023-10-06;울산 울주군 삼동면 산현출강길 73;;35.4929626;129.171188;글램핑;울산시;울주군
101141;구르미의 오션;2023-10-04;경기 김포시 월곶면 문수산로 174-19;;37.7448598;126.5323266;카라반;경기도;김포시
101142;새울림오토캠핑장;2023-10-12;경남 통영시 욕지면 욕지일주로 742-20;;34.6471472;128.2331304;자동차야영장;경상남도;통영시
101143;캠프어게인;2023-10-17;경북 경주시 내남면 화계로 418-4;;35.7735473;129.1689864;일반야영장,자동차야영장;경상북도;경주시
101144;캠프타임 캠핑장;2023-10-05;충남 보령시 청소면 송덕신송길 219;;36.4615458;126.5702452;자동차야영장;충청남도;보령시
101145;스테이700;2023-10-17;대구 군위군 삼국유사면 화산길 619-64;;36.0962389;128.7766447;일반야영장;대구시;군위군
101146;몽키캠핑장;2023-10-19;충남 천안시 동남구 북면 삼방로 1163-1;;36.8471705;127.2491962;자동차야영장,글램핑;충청남도;천안시
101147;포천예담가족캠핑장&글램핑;2017-07-17;경기 포천시 관인면 뗏마루길 251-9;;38.1085377;127.2524744;일반야영장;경기도;포천시
101148;옥수온천캠핑랜드;2023-10-20;경남 고성군 회화면 남해안대로 4065;;35.0892776;128.3772088;카라반;경상남도;고성군
101149;소꿉놀이 글램핑&캠프닉;2023-10-12;경북 청도군 금천면 교동길 59-49;;35.725279;128.8501385;일반야영장;경상북도;청도군
101150;THE 숨 FOREST;2023-10-05;경남 창원시 마산합포구 구산면 해양관광로 2010;;35.0584996;128.561616;자동차야영장;경상남도;창원시
101151;쉬어가조;2023-10-05;경남 거제시 사등면 가조로 232;;34.933026;128.5239646;일반야영장;경상남도;거제시
101152;럭셔리글램핑라피네;2023-10-06;경북 안동시 남후면 암산1길 18;;36.5030261;128.6772366;자동차야영장;경상북도;안동시
101153;내장호야영장;2023-10-06;전북특별자치도 정읍시 내장호반로 276 (내장동);;35.5074531;126.9058608;자동차야영장;전라북도;정읍시
101154;빈투어 주식회사;2023-10-06;서울 중구 퇴계로 36 (남창동);;37.5573093;126.9770507;자동차야영장;서울시;중구
101155;이 밤;2023-10-06;경북 포항시 북구 청하면 해안로2000번길 33-20;;36.1811265;129.3917834;일반야영장;경상북도;포항시
101156;파랑새 캠핑장;2023-10-06;전남 장성군 북하면 백양로 447;;35.4260534;126.8473535;일반야영장;전라남도;장성군
101157;산수향 야영장;2023-10-10;강원특별자치도 횡성군 서원면 옥계6길 66;;37.4403198;127.8544648;일반야영장;강원도;횡성군
101158;와우바베큐캠핑장;2023-10-11;충청남도 천안시 동남구 목천읍 서흥리 373-3 ;;36.8082957;127.229622;일반야영장;충청남도;천안시
101159;소구니캠핑장;2023-10-11;강원특별자치도 홍천군 내촌면 용포길 95-48;소구니 캠핑장;37.8247406;128.0535286;일반야영장;강원도;홍천군
101160;황매산 숲속야영장;2023-10-13;경상남도 합천군 가회면 둔내리 산 219-26 ;;35.4877667;127.985722;자동차야영장;경상남도;합천군
101161;초이휴캠핑장;2023-10-16;경기 하남시 초이로99번길 49-32 (초이동);;37.5426858;127.1676655;자동차야영장;경기도;하남시
101162;탄금호 피크닉 공원;2023-10-16;충북 충주시 중앙탑면 중앙탑길 150;;37.0240369;127.862157;일반야영장;충청북도;충주시
101163;화순정원글램핑관광농원;2023-10-17;전남 화순군 백아면 백아로 2280-1;;35.1533461;127.08781;일반야영장;전라남도;화순군
101164;바샘;2023-10-17;강원특별자치도 평창군 봉평면 봉평북로 324-27;;37.6159993;128.3453184;일반야영장;강원도;평창군
101165;해그림 캠핑장;2023-10-17;인천 강화군 삼산면 삼산동로 165;;37.6688263;126.3751375;일반야영장;인천시;강화군
101166;공주교육가족체험장;2023-11-10;충남 공주시 우성면 용봉입동로 524;;36.4645591;126.9874125;자동차야영장;충청남도;공주시
101167;앵봉산 가족캠핑장;2023-10-19;서울 은평구 통일로 1053 (진관동);;37.6358864;126.9158491;일반야영장,글램핑;서울시;은평구
101168;초록여울 캠핑장;2023-10-20;경남 창녕군 고암면 창밀로 991-6;;35.5608157;128.5641568;일반야영장,자동차야영장;경상남도;창녕군
101169;포천 몽롱한노을 카라반 캠핑장;2023-10-20;경기 포천시 일동면 운악청계로1480번길 90-183;;37.936403;127.3511222;일반야영장;경기도;포천시
101170;스테이 스톤;2023-10-23;경북 고령군 쌍림면 대가야로 446-47;;35.6654887;128.2361211;일반야영장;경상북도;고령군
101171;㈜어메이징캠프;2023-10-24;강원특별자치도 영월군 무릉도원면 도원운학로 867;;37.293537;128.204168;일반야영장;강원도;영월군
101172;캠프 파지립;2023-10-24;강원특별자치도 춘천시 동면 춘천순환로 923;;37.9201844;127.7499632;일반야영장,글램핑;강원도;춘천시
101173;2918캠핑스테이;2023-10-24;경기 가평군 가평읍 당목가일길 473-47;;37.8734493;127.5619131;일반야영장;경기도;가평군
101174;달문관광 농원;2023-10-25;경북 칠곡군 지천면 지천로 487-21;;35.973712;128.481987;일반야영장;경상북도;칠곡군
101175;팜 스프링캠프;2023-10-25;경북 김천시 봉산면 광천4길 232-24;;36.1978065;127.9983845;일반야영장;경상북도;김천시
